room_id,rating,city,contextualPicturesCount,lat,long,listingObjType,name,roomTypeCategory,reviewCount,isSuperHost,isVerified,yearHosting,canInstantBook,price,maxGuestCapacity,SYSTEM_LOCK_ON_DOOR,SYSTEM_COOKING_BASICS,SYSTEM_WI_FI,SYSTEM_WORKSPACE,SYSTEM_JACUZZI,SYSTEM_PETS,SYSTEM_TV,SYSTEM_WASHER,SYSTEM_SNOWFLAKE,SYSTEM_SURVEILLANCE,SYSTEM_VIEW_CITY,SYSTEM_MAPS_CAR_RENTAL,SYSTEM_ELEVATOR,SYSTEM_LUGGAGE_DROP,SYSTEM_NO_DETECTOR_CO2,SYSTEM_BATHTUB,SYSTEM_HAIRDRYER,SYSTEM_NO_LOCK_ON_DOOR,SYSTEM_NO_DETECTOR_SMOKE,SYSTEM_VIEW_OCEAN,SYSTEM_EV_CHARGER,SYSTEM_PATIO_BALCONY,SYSTEM_FLOWER,SYSTEM_DRYER,SYSTEM_CRIB,SYSTEM_SMOKING_ALLOWED,SYSTEM_REFRIGERATOR,SYSTEM_FIREPLACE,SYSTEM_HIGH_CHAIR,SYSTEM_POOL,SYSTEM_MICROWAVE,SYSTEM_BREAKFAST,SYSTEM_TOYS,SYSTEM_CALENDAR
870795438399690443,4.6,hanoi,9,21.0330920230069,105.81121545284986,REGULAR,studio near west lake and lotte badinh,private_room,5,0.0,1.0,0.8333333333333334,0,440168,2.0,1.0,1.0,1.0,1.0,1.0,1.0,1.0,1.0,1.0,1.0,2.0,2.0,2.0,2.0,2.0,2.0,2.0,2.0,2.0,2.0,2.0,2.0,2.0,2.0,2.0,2.0,2.0,2.0,2.0,2.0,2.0,2.0,2.0,2.0
916268133819836785,0.0,hanoi,19,21.036369,105.813111,REGULAR,HiHome-CozyStudio-HaNoi-near Lotte/Vin,private_room,2,0.0,1.0,0.08333333333333333,0,310400,2.0,1.0,2.0,1.0,1.0,2.0,2.0,1.0,2.0,1.0,2.0,1.0,1.0,1.0,1.0,0.0,2.0,2.0,2.0,2.0,2.0,2.0,2.0,2.0,2.0,2.0,2.0,2.0,2.0,2.0,2.0,2.0,2.0,2.0,2.0
932989515764395215,0.0,hanoi,19,21.0341811,105.8329803,REGULAR,Le Petit * 5min to BaDinhsquare,private_room,1,0.0,1.0,5.0,0,454621,2.0,2.0,2.0,1.0,2.0,1.0,2.0,1.0,2.0,1.0,2.0,2.0,1.0,2.0,2.0,0.0,1.0,1.0,0.0,0.0,2.0,2.0,2.0,2.0,2.0,2.0,2.0,2.0,2.0,2.0,2.0,2.0,2.0,2.0,2.0
17859872,4.7,hanoi,19,21.03071,105.85664,REGULAR,Căn hộ trung tâm hoàn hảo - Khu phố cổ Hà Nội,entire_home,109,0.0,0.0,0.0,0,397674,2.0,2.0,2.0,1.0,2.0,2.0,2.0,1.0,2.0,1.0,2.0,1.0,1.0,2.0,2.0,0.0,2.0,2.0,2.0,2.0,1.0,1.0,1.0,1.0,2.0,2.0,2.0,2.0,2.0,2.0,2.0,2.0,2.0,2.0,2.0
737539223434077240,4.83,hanoi,11,21.02056,105.8605,REGULAR,Ánh sáng mặt trời tự nhiên ở Hoàn Kiếm,private_room,24,0.0,1.0,0.9166666666666666,0,362466,2.0,1.0,1.0,1.0,1.0,2.0,2.0,1.0,1.0,1.0,1.0,2.0,2.0,2.0,2.0,0.0,2.0,1.0,2.0,2.0,2.0,2.0,2.0,2.0,2.0,2.0,2.0,2.0,2.0,2.0,2.0,2.0,2.0,2.0,2.0
665790698932957015,4.5,hanoi,8,21.03209,105.77483,REGULAR,"Căn hộ tươi mới tại Mỹ Đình, Hà Nội",private_room,4,0.0,1.0,1.0,0,288633,2.0,1.0,1.0,1.0,1.0,2.0,2.0,2.0,1.0,2.0,1.0,2.0,1.0,2.0,2.0,0.0,2.0,2.0,2.0,0.0,2.0,2.0,2.0,2.0,1.0,2.0,2.0,2.0,2.0,2.0,2.0,2.0,2.0,2.0,2.0
828700828300061719,4.91,hanoi,10,21.0628395,105.8234699,REGULAR,R601 - Studio ấm cúng cho cặp đôi ở Tây Hồ,entire_home,22,0.0,0.0,0.0,0,480307,2.0,2.0,1.0,1.0,1.0,2.0,2.0,1.0,1.0,1.0,1.0,2.0,1.0,2.0,2.0,2.0,2.0,1.0,2.0,2.0,2.0,2.0,2.0,2.0,2.0,2.0,2.0,2.0,2.0,2.0,2.0,2.0,2.0,2.0,2.0
41188415,4.92,hanoi,25,21.01107,105.86069,REGULAR,Ban công/2.netflix/wash/dry/Airportcar/Topferbed,entire_home,13,0.0,0.0,0.0,0,431752,2.0,2.0,1.0,1.0,1.0,2.0,1.0,1.0,2.0,2.0,1.0,1.0,1.0,2.0,2.0,0.0,2.0,2.0,2.0,0.0,2.0,2.0,2.0,2.0,2.0,2.0,2.0,2.0,2.0,2.0,2.0,2.0,2.0,2.0,2.0
703058307249366579,4.07,hanoi,7,21.031135970710746,105.84996447175828,REGULAR,"Luxcondo near Ho Guom, Ta Hien, Cathedral, Ho Tay!",private_room,14,0.0,0.0,0.0,0,289869,2.0,2.0,2.0,1.0,1.0,2.0,1.0,2.0,2.0,1.0,2.0,1.0,2.0,2.0,2.0,2.0,2.0,1.0,2.0,2.0,2.0,2.0,1.0,1.0,2.0,1.0,1.0,2.0,2.0,2.0,2.0,2.0,2.0,2.0,2.0
653914407593700547,4.5,hanoi,9,21.02908,105.84633,REGULAR,Căn hộ Cừu_5 phút đến Nhà thờ Lớn,private_room,4,0.0,0.0,0.0,0,441361,2.0,2.0,1.0,1.0,2.0,2.0,2.0,1.0,2.0,1.0,2.0,2.0,2.0,2.0,2.0,0.0,2.0,1.0,2.0,0.0,2.0,2.0,1.0,2.0,1.0,2.0,2.0,1.0,2.0,2.0,2.0,2.0,2.0,2.0,2.0
928201493480798167,0.0,hanoi,8,21.0353569,105.8108514,REGULAR,-25% The apartment has a nice view next to the bed,private_room,0,0.0,0.0,0.0,0,502118,2.0,2.0,1.0,1.0,1.0,2.0,2.0,1.0,1.0,2.0,1.0,1.0,1.0,1.0,2.0,2.0,2.0,2.0,2.0,2.0,2.0,1.0,2.0,2.0,2.0,2.0,2.0,2.0,2.0,2.0,2.0,2.0,2.0,2.0,2.0
19884490,4.87,hanoi,14,21.03382,105.82192,REGULAR,Căn hộ 4C 3,private_room,31,0.0,0.0,0.0,0,269829,1.0,2.0,1.0,1.0,2.0,2.0,2.0,1.0,1.0,1.0,2.0,2.0,1.0,2.0,2.0,0.0,2.0,2.0,2.0,0.0,1.0,2.0,1.0,2.0,2.0,2.0,2.0,2.0,2.0,2.0,2.0,2.0,2.0,2.0,2.0
759894198636603523,5.0,hanoi,25,21.0473528,105.8079001,REGULAR,Cozy room close to the center but quiet,private_room,6,0.0,0.0,0.0,0,278860,2.0,2.0,1.0,2.0,1.0,2.0,1.0,1.0,1.0,1.0,2.0,2.0,1.0,2.0,2.0,0.0,2.0,2.0,2.0,0.0,2.0,2.0,1.0,2.0,2.0,2.0,2.0,2.0,2.0,2.0,2.0,2.0,2.0,2.0,2.0
843003673111080657,4.86,hanoi,11,21.0325882,105.8091932,REGULAR,CĂN HỘ 1 phòng ngủ/Sáng sủa & Ấm cúng/Trung tâm Lotte gần đó,entire_home,7,0.0,0.0,0.0,0,458488,2.0,2.0,1.0,1.0,2.0,2.0,2.0,1.0,1.0,1.0,2.0,2.0,2.0,2.0,2.0,0.0,2.0,2.0,2.0,2.0,2.0,2.0,2.0,2.0,2.0,2.0,2.0,2.0,2.0,2.0,2.0,2.0,2.0,2.0,2.0
44426054,4.28,hanoi,30,21.02199,105.85323,REGULAR,LUXHOME3_Yên tĩnh_BigBacony4 phút đến Hồ Hoàn Kiếm,entire_home,25,0.0,0.0,0.0,0,368000,2.0,2.0,1.0,1.0,1.0,2.0,2.0,2.0,2.0,1.0,2.0,2.0,2.0,2.0,2.0,0.0,2.0,1.0,2.0,0.0,1.0,2.0,1.0,2.0,2.0,2.0,2.0,2.0,1.0,2.0,2.0,2.0,2.0,2.0,2.0
836610309307990848,4.75,hanoi,12,21.06936,105.82521,REGULAR,Studio Apt on To Ngoc Van 36,entire_home,4,0.0,0.0,0.0,0,424589,2.0,2.0,1.0,1.0,2.0,1.0,1.0,1.0,2.0,2.0,2.0,1.0,1.0,2.0,2.0,0.0,2.0,2.0,2.0,0.0,2.0,1.0,2.0,2.0,2.0,2.0,2.0,2.0,2.0,2.0,2.0,2.0,2.0,2.0,2.0
624245300255140277,5.0,hanoi,7,21.029,105.83368,REGULAR,Căn 1 phòng ngủ vui vẻ với ánh sáng tự nhiên,private_room,6,1.0,1.0,1.0,0,483573,2.0,1.0,1.0,1.0,1.0,2.0,1.0,1.0,1.0,2.0,2.0,2.0,1.0,2.0,2.0,0.0,2.0,2.0,2.0,0.0,2.0,2.0,2.0,2.0,2.0,2.0,2.0,2.0,2.0,2.0,2.0,2.0,2.0,2.0,2.0
735720253726051982,4.5,hanoi,30,21.021208,105.8473892,REGULAR,Vequehomestay/NetflixTV/Kitchen/FreeWasher&Dryer,private_room,8,0.0,1.0,0.8333333333333334,0,343669,2.0,2.0,1.0,1.0,2.0,2.0,1.0,1.0,1.0,1.0,2.0,2.0,2.0,2.0,2.0,0.0,2.0,1.0,0.0,0.0,2.0,2.0,2.0,2.0,2.0,2.0,2.0,2.0,2.0,2.0,2.0,2.0,2.0,2.0,2.0
844817886726901754,4.67,hanoi,8,21.033092023426853,105.81121545284986,REGULAR,3 studio near WestLake and Lotte BaDinh,private_room,6,0.0,0.0,0.0,0,363954,2.0,2.0,1.0,1.0,1.0,1.0,1.0,1.0,2.0,2.0,1.0,2.0,1.0,2.0,2.0,0.0,2.0,2.0,2.0,0.0,2.0,2.0,2.0,2.0,2.0,2.0,2.0,2.0,2.0,2.0,2.0,2.0,2.0,2.0,2.0
689028118821448942,4.17,hanoi,7,21.031150991920715,105.84999397605745,REGULAR,"Lovelycondo center Old Quarter, Ta Hien, Cathedral",private_room,24,0.0,0.0,0.0,0,276792,2.0,2.0,2.0,1.0,1.0,2.0,1.0,2.0,1.0,1.0,2.0,1.0,2.0,2.0,2.0,2.0,2.0,1.0,2.0,2.0,2.0,2.0,1.0,1.0,2.0,1.0,2.0,2.0,2.0,2.0,2.0,2.0,2.0,2.0,2.0
566330153536937646,0.0,hanoi,9,21.02895,105.83914,REGULAR,Nhà trung tâm phố cổ và các điểm du lịch.@.@,entire_home,0,0.0,0.0,0.0,0,429083,3.0,2.0,2.0,1.0,1.0,2.0,2.0,1.0,2.0,1.0,2.0,2.0,2.0,2.0,2.0,0.0,2.0,1.0,2.0,0.0,2.0,2.0,2.0,2.0,2.0,2.0,2.0,2.0,2.0,2.0,2.0,2.0,2.0,2.0,2.0
643149488007113191,4.78,hanoi,12,21.03299,105.83181,REGULAR,Le Cloud * nearby Ba Dinh square,private_room,9,0.0,1.0,5.0,0,484064,2.0,1.0,2.0,1.0,1.0,1.0,2.0,1.0,2.0,1.0,2.0,2.0,1.0,1.0,2.0,0.0,2.0,2.0,2.0,0.0,2.0,2.0,2.0,2.0,2.0,2.0,2.0,2.0,2.0,2.0,2.0,2.0,2.0,2.0,2.0
45034183,4.93,hanoi,30,21.03632,105.85507,REGULAR,"Studio, thang máy, Hoàn Kiếm, gần khu phố cổ #D02",entire_home,197,0.0,0.0,0.0,0,490990,2.0,2.0,1.0,1.0,1.0,2.0,2.0,1.0,2.0,1.0,1.0,2.0,1.0,1.0,2.0,2.0,2.0,2.0,2.0,2.0,2.0,2.0,2.0,2.0,2.0,2.0,2.0,2.0,2.0,2.0,2.0,2.0,2.0,2.0,2.0
35467582,4.81,hanoi,26,21.03154,105.82352,REGULAR,Căn hộ một giường ấm cúng - studio @HanoiBui 'sHomflix,entire_home,37,0.0,0.0,0.0,0,274769,6.0,2.0,1.0,1.0,1.0,2.0,2.0,1.0,1.0,1.0,1.0,2.0,2.0,2.0,2.0,0.0,2.0,2.0,2.0,0.0,2.0,2.0,1.0,2.0,2.0,2.0,2.0,2.0,2.0,2.0,2.0,2.0,2.0,2.0,2.0
856795244392164498,4.5,hanoi,6,21.0485115,105.8779099,REGULAR,La Vera @10 phút đến Khu phố cổ,private_room,4,0.0,1.0,5.0,0,445546,2.0,1.0,1.0,1.0,2.0,2.0,2.0,1.0,2.0,1.0,2.0,2.0,2.0,1.0,2.0,0.0,2.0,2.0,2.0,0.0,2.0,2.0,1.0,2.0,2.0,2.0,2.0,2.0,2.0,1.0,2.0,2.0,2.0,2.0,2.0
46015441,5.0,hanoi,3,21.03403,105.82334,REGULAR,"Phòng sáng sủa,yên tĩnh trong nhà chung của người nước ngoài gần Lotte",private_room,4,0.0,1.0,4.0,0,269773,1.0,1.0,1.0,1.0,1.0,2.0,2.0,2.0,1.0,1.0,2.0,2.0,1.0,2.0,1.0,0.0,2.0,2.0,2.0,0.0,2.0,2.0,2.0,2.0,2.0,2.0,2.0,2.0,2.0,2.0,2.0,2.0,2.0,2.0,2.0
924179745527236963,0.0,hanoi,20,21.0301814,105.8505091,REGULAR,DePolo * 50m to Hoan Kiem lake,private_room,2,0.0,1.0,5.0,0,401671,2.0,2.0,2.0,1.0,2.0,2.0,2.0,2.0,2.0,1.0,2.0,2.0,1.0,1.0,2.0,0.0,2.0,1.0,0.0,0.0,2.0,2.0,2.0,2.0,2.0,2.0,2.0,1.0,2.0,2.0,2.0,2.0,2.0,2.0,2.0
912249038669486110,5.0,hanoi,29,21.03488,105.84759,REGULAR,Stylish little house • Old quarter •Railway Cafe,entire_home,9,0.0,0.0,0.0,0,455330,2.0,2.0,1.0,1.0,1.0,2.0,1.0,1.0,1.0,2.0,1.0,2.0,1.0,2.0,2.0,0.0,2.0,2.0,2.0,0.0,2.0,2.0,2.0,2.0,2.0,2.0,2.0,2.0,2.0,2.0,2.0,2.0,2.0,2.0,2.0
935358456462198039,0.0,hanoi,19,21.034877570457393,105.84849951467308,REGULAR,Budget-friendly 1BR Studio w/balcony @Old Quarter,entire_home,0,0.0,0.0,0.0,0,459643,2.0,2.0,2.0,1.0,1.0,2.0,1.0,1.0,1.0,1.0,1.0,2.0,1.0,2.0,2.0,0.0,2.0,2.0,2.0,0.0,2.0,2.0,2.0,2.0,2.0,2.0,2.0,2.0,2.0,2.0,2.0,2.0,2.0,2.0,2.0
41179589,4.8,hanoi,25,21.0117,105.85848,REGULAR,Ban công/4.netflix/topferbed/wash/dry/AIRPORTcar,entire_home,20,0.0,0.0,0.0,0,406226,2.0,2.0,1.0,1.0,1.0,2.0,1.0,1.0,1.0,2.0,1.0,1.0,1.0,2.0,2.0,0.0,2.0,2.0,2.0,2.0,2.0,2.0,2.0,2.0,2.0,2.0,2.0,2.0,2.0,2.0,2.0,2.0,2.0,2.0,2.0
661518993434369023,4.99,hanoi,13,21.0222663,105.831827,REGULAR,Yue 越 Homestay #1 @yueviet,private_room,83,1.0,1.0,2.0,0,428294,2.0,1.0,2.0,1.0,1.0,2.0,2.0,1.0,2.0,1.0,1.0,2.0,1.0,2.0,1.0,0.0,2.0,2.0,2.0,2.0,1.0,2.0,2.0,2.0,2.0,2.0,2.0,2.0,2.0,2.0,2.0,2.0,2.0,2.0,2.0
931058313664294160,0.0,hanoi,6,21.036283962208486,105.83004590123892,REGULAR,"Căn Hộ Cao Cấp, 1 Ngủ 1 Khách",private_room,0,0.0,0.0,0.0,0,366884,2.0,2.0,1.0,1.0,1.0,2.0,2.0,2.0,1.0,1.0,1.0,2.0,2.0,2.0,2.0,2.0,2.0,2.0,2.0,2.0,1.0,2.0,2.0,2.0,2.0,2.0,2.0,2.0,2.0,2.0,2.0,2.0,2.0,2.0,2.0
829744392545766862,0.0,hanoi,5,21.024585506896297,105.85483592162434,REGULAR,*New listing Sale!* Artsy Studio in Hoan Kiem,private_room,0,0.0,0.0,0.0,0,273882,2.0,2.0,1.0,1.0,1.0,2.0,2.0,1.0,1.0,1.0,1.0,2.0,1.0,2.0,2.0,0.0,2.0,2.0,2.0,2.0,2.0,2.0,2.0,2.0,2.0,2.0,2.0,2.0,2.0,2.0,2.0,2.0,2.0,2.0,2.0
597842582217773112,4.55,hanoi,19,21.02988,105.84673,REGULAR,Moonni Homestay - Không gian sống tối thiểu @ Hoàn Kiếm,private_room,31,0.0,1.0,1.0,0,329640,2.0,1.0,1.0,1.0,1.0,2.0,1.0,2.0,2.0,2.0,1.0,2.0,1.0,2.0,2.0,0.0,2.0,2.0,2.0,0.0,2.0,2.0,2.0,1.0,2.0,2.0,2.0,2.0,2.0,2.0,2.0,2.0,2.0,2.0,2.0
877417604854892292,4.33,hanoi,9,21.04009,105.76608,REGULAR,Lan ‘s Home,private_room,3,0.0,1.0,3.0,0,322790,2.0,1.0,1.0,1.0,1.0,2.0,2.0,2.0,2.0,2.0,2.0,2.0,1.0,2.0,2.0,0.0,2.0,2.0,2.0,0.0,1.0,2.0,2.0,1.0,2.0,2.0,2.0,2.0,2.0,2.0,1.0,2.0,2.0,2.0,2.0
921658275944229636,5.0,hanoi,23,21.0353981,105.7956757,REGULAR,401 Amoureux Chùa Hà,entire_home,3,0.0,0.0,0.0,0,485593,2.0,2.0,1.0,1.0,1.0,1.0,1.0,1.0,2.0,2.0,1.0,1.0,1.0,2.0,2.0,2.0,2.0,2.0,2.0,2.0,2.0,2.0,2.0,1.0,2.0,2.0,2.0,2.0,2.0,2.0,2.0,2.0,2.0,2.0,2.0
673041187090305736,4.69,hanoi,16,21.029109526682355,105.84287289530039,REGULAR,Căn hộ Duplex ấm cúng 55m2 tại trung tâm HN,entire_home,29,0.0,0.0,0.0,0,488248,3.0,2.0,1.0,1.0,1.0,2.0,1.0,1.0,2.0,2.0,2.0,2.0,1.0,2.0,2.0,0.0,2.0,2.0,2.0,0.0,1.0,2.0,2.0,1.0,2.0,2.0,2.0,2.0,2.0,2.0,2.0,2.0,2.0,2.0,2.0
865009784625368046,5.0,hanoi,6,21.0333701,105.811266,REGULAR,1 studio near westlake and Lotte BĐinh,private_room,4,0.0,1.0,0.8333333333333334,0,325235,2.0,1.0,1.0,1.0,1.0,1.0,1.0,1.0,2.0,2.0,1.0,2.0,1.0,2.0,2.0,0.0,2.0,2.0,2.0,2.0,2.0,2.0,2.0,2.0,2.0,2.0,2.0,2.0,2.0,2.0,2.0,2.0,2.0,2.0,2.0
737940329799780624,4.64,hanoi,5,21.031085770064905,105.85009574890137,REGULAR,"Lotuscondo ở Hồ Guom, Khu phố cổ,Nhà thờ Đức Bà,Tạ Hiện",private_room,14,0.0,0.0,0.0,0,301235,2.0,2.0,2.0,1.0,1.0,2.0,1.0,2.0,1.0,1.0,2.0,1.0,2.0,1.0,2.0,2.0,2.0,2.0,2.0,2.0,1.0,2.0,1.0,1.0,2.0,2.0,2.0,2.0,2.0,2.0,2.0,2.0,2.0,2.0,2.0
843035722315904930,0.0,hanoi,9,21.0301731,105.8504665,REGULAR,Circus @ 50m đến Hồ Hoàn Kiếm,private_room,2,0.0,1.0,5.0,0,373466,2.0,1.0,1.0,1.0,1.0,2.0,2.0,2.0,2.0,1.0,2.0,2.0,2.0,1.0,2.0,0.0,2.0,1.0,2.0,0.0,2.0,2.0,2.0,2.0,2.0,2.0,2.0,1.0,2.0,2.0,2.0,2.0,2.0,2.0,2.0
869123381804676338,5.0,hanoi,9,21.0366068,105.8756782,REGULAR,Phòng riêng trong nhà sân vườn,private_room,4,0.0,1.0,0.25,0,289978,2.0,1.0,1.0,1.0,1.0,2.0,2.0,2.0,1.0,2.0,1.0,2.0,1.0,2.0,2.0,0.0,2.0,2.0,2.0,0.0,1.0,2.0,2.0,2.0,2.0,2.0,2.0,2.0,2.0,2.0,2.0,2.0,2.0,2.0,2.0
644538052203873703,4.61,hanoi,20,21.03072,105.84587,REGULAR,Lovely rental studio in Hoàn Kiếm,entire_home,36,0.0,0.0,0.0,0,489254,4.0,2.0,1.0,1.0,1.0,2.0,2.0,1.0,1.0,1.0,2.0,2.0,2.0,2.0,2.0,0.0,2.0,1.0,2.0,0.0,2.0,2.0,1.0,2.0,2.0,2.0,2.0,2.0,2.0,2.0,2.0,2.0,2.0,2.0,2.0
34748111,4.9,hanoi,18,21.04629,105.81228,REGULAR,Studio đẹp gần Westlake và nhiều đường phố chính,entire_home,80,0.0,0.0,0.0,0,377690,2.0,2.0,1.0,1.0,1.0,2.0,2.0,1.0,1.0,2.0,2.0,1.0,2.0,2.0,2.0,0.0,2.0,2.0,2.0,0.0,1.0,2.0,2.0,2.0,1.0,2.0,2.0,2.0,2.0,2.0,2.0,2.0,2.0,2.0,2.0
931067000621101872,0.0,hanoi,7,21.03628177154967,105.83001639693975,REGULAR,"Căn Hộ Cao Cấp, 1 Ngủ 1 Khách",private_room,0,0.0,0.0,0.0,0,388442,2.0,2.0,1.0,1.0,1.0,2.0,2.0,2.0,1.0,1.0,1.0,2.0,2.0,2.0,2.0,2.0,2.0,2.0,2.0,2.0,1.0,2.0,2.0,2.0,2.0,2.0,2.0,2.0,2.0,2.0,2.0,2.0,2.0,2.0,2.0
784638738240140393,4.85,hanoi,30,21.06647260036268,105.82533603933919,REGULAR,Tây Hồ Studio! Ngôi nhà ấm cúng! Gần Hồ.,entire_home,13,0.0,0.0,0.0,0,420356,2.0,2.0,2.0,1.0,1.0,2.0,2.0,1.0,1.0,1.0,2.0,2.0,1.0,2.0,2.0,0.0,2.0,1.0,2.0,0.0,2.0,2.0,2.0,2.0,2.0,2.0,2.0,2.0,2.0,2.0,2.0,2.0,2.0,2.0,2.0
32931420,4.93,hanoi,11,21.03133,105.82217,REGULAR,Căn hộ 4C 1,entire_home,27,0.0,0.0,0.0,0,270110,1.0,2.0,1.0,1.0,1.0,2.0,2.0,1.0,1.0,2.0,2.0,2.0,1.0,2.0,2.0,0.0,2.0,2.0,2.0,0.0,1.0,2.0,2.0,2.0,1.0,2.0,2.0,2.0,2.0,2.0,2.0,2.0,2.0,2.0,2.0
871250827530481551,0.0,hanoi,15,21.05364,105.83386,REGULAR,Căn hộ đầy đủ tiện nghi Ban Công Thoáng tại Tây Hồ,private_room,0,0.0,0.0,0.0,0,327178,2.0,2.0,1.0,1.0,1.0,2.0,1.0,1.0,1.0,2.0,1.0,2.0,1.0,2.0,2.0,0.0,2.0,2.0,2.0,2.0,1.0,2.0,2.0,2.0,2.0,2.0,2.0,2.0,2.0,2.0,2.0,2.0,2.0,2.0,2.0
39703917,4.52,hanoi,30,21.03322,105.84527,REGULAR,Khu phố cổ / PINKY HOME/ {Orchid garden Hanoi},entire_home,58,0.0,0.0,0.0,0,325248,2.0,2.0,1.0,1.0,1.0,2.0,2.0,1.0,1.0,1.0,2.0,2.0,1.0,2.0,1.0,0.0,2.0,2.0,2.0,0.0,2.0,2.0,2.0,2.0,2.0,2.0,2.0,2.0,2.0,2.0,2.0,2.0,2.0,2.0,2.0
780888412764806940,4.18,hanoi,7,21.0315055,105.855027,REGULAR,"Trung tâm Cozyhome Khu phố cổ, Nhà thờ",private_room,28,0.0,0.0,0.0,0,300111,2.0,2.0,1.0,1.0,1.0,2.0,1.0,2.0,1.0,1.0,2.0,2.0,1.0,2.0,1.0,2.0,2.0,2.0,2.0,2.0,1.0,2.0,1.0,2.0,2.0,2.0,2.0,2.0,2.0,2.0,2.0,2.0,2.0,2.0,2.0
750218288626517808,0.0,hanoi,14,20.98763,105.79731,REGULAR,Cải tạo mới - Phòng yên tĩnh gần Đại học Hà Nội,private_room,2,0.0,1.0,4.0,0,256765,1.0,1.0,1.0,1.0,1.0,2.0,2.0,2.0,1.0,1.0,1.0,2.0,1.0,2.0,2.0,0.0,2.0,2.0,2.0,0.0,2.0,2.0,2.0,2.0,2.0,2.0,2.0,2.0,2.0,2.0,2.0,2.0,2.0,2.0,2.0
856782950936237324,0.0,hanoi,5,21.0485115,105.8779099,REGULAR,La Crosse @10 phút đến Khu Phố Cổ,private_room,0,0.0,1.0,0.0,0,446556,2.0,1.0,1.0,1.0,2.0,2.0,2.0,1.0,2.0,1.0,2.0,2.0,2.0,2.0,2.0,0.0,2.0,1.0,2.0,0.0,2.0,2.0,1.0,2.0,2.0,2.0,2.0,1.0,2.0,2.0,2.0,2.0,2.0,2.0,2.0
555656581000472665,4.4,hanoi,10,21.04691,105.84154,REGULAR,Căn hộ ban công phong cách Hồ Trúc Bạch 1 phút,entire_home,35,0.0,0.0,0.0,0,488050,2.0,2.0,1.0,1.0,1.0,2.0,2.0,1.0,2.0,1.0,1.0,2.0,2.0,1.0,2.0,0.0,2.0,2.0,2.0,0.0,2.0,2.0,1.0,2.0,2.0,2.0,2.0,2.0,2.0,2.0,2.0,2.0,2.0,2.0,2.0
732151647948523523,4.51,hanoi,28,21.021208,105.8473892,REGULAR,VequeHomestay/Villa03/Trung tâm/Máy giặt miễn phí/Yên tĩnh,entire_home,79,0.0,0.0,0.0,0,302159,2.0,2.0,2.0,1.0,1.0,2.0,1.0,2.0,1.0,1.0,2.0,2.0,2.0,2.0,2.0,0.0,2.0,1.0,2.0,0.0,1.0,2.0,2.0,2.0,2.0,2.0,2.0,2.0,2.0,2.0,2.0,2.0,2.0,2.0,2.0
29223931,4.67,hanoi,30,21.078716278076172,105.81829833984375,REGULAR,Cozy studio apt in a peaceful alley near West Lake,entire_home,6,0.0,0.0,0.0,0,343018,2.0,2.0,1.0,1.0,1.0,1.0,1.0,1.0,2.0,2.0,2.0,2.0,1.0,2.0,2.0,0.0,2.0,2.0,2.0,0.0,2.0,2.0,2.0,1.0,2.0,2.0,2.0,2.0,2.0,2.0,2.0,2.0,2.0,2.0,2.0
862753744286713592,0.0,hanoi,18,21.026404530457736,105.82644405158997,REGULAR,The Hanoian Market Butcher House,private_room,0,0.0,1.0,0.0,0,365177,2.0,1.0,2.0,1.0,1.0,2.0,2.0,1.0,1.0,1.0,2.0,2.0,2.0,2.0,2.0,0.0,2.0,2.0,2.0,0.0,2.0,2.0,1.0,2.0,1.0,2.0,2.0,2.0,2.0,2.0,2.0,2.0,2.0,2.0,2.0
719979493315673429,4.78,hanoi,15,21.02092,105.84648,REGULAR,Vequehomestay-Villa15- Phố cổ -Bếp-Yên tĩnh,private_room,27,0.0,1.0,0.8333333333333334,0,307548,2.0,2.0,1.0,1.0,2.0,2.0,1.0,2.0,1.0,2.0,2.0,2.0,1.0,2.0,2.0,0.0,2.0,2.0,0.0,0.0,1.0,2.0,2.0,2.0,1.0,2.0,2.0,2.0,2.0,2.0,2.0,2.0,2.0,2.0,2.0
917633215172390851,0.0,hanoi,20,21.0301814,105.8505091,REGULAR,Hazelnut * Nearby Hoan Kiem Lake,private_room,2,0.0,1.0,5.0,0,484292,2.0,2.0,1.0,1.0,1.0,2.0,2.0,1.0,2.0,1.0,2.0,2.0,2.0,1.0,2.0,0.0,2.0,2.0,0.0,0.0,2.0,2.0,1.0,2.0,2.0,2.0,2.0,2.0,2.0,2.0,2.0,2.0,2.0,2.0,2.0
934355418492092484,0.0,hanoi,11,21.06770878316832,105.82557344786308,REGULAR,Nice Apartment 01 BR/in Center of Tay Ho,entire_home,0,0.0,0.0,0.0,0,412823,2.0,2.0,1.0,1.0,2.0,2.0,2.0,1.0,1.0,1.0,2.0,2.0,1.0,2.0,2.0,0.0,2.0,2.0,2.0,0.0,2.0,1.0,2.0,2.0,1.0,2.0,2.0,2.0,2.0,2.0,2.0,2.0,2.0,2.0,2.0
21671494,4.9,hanoi,11,21.01067,105.82235,REGULAR,Sống cùng gia đình bản xứ đáng yêu tại Trung tâm Hà Nội,private_room,108,1.0,1.0,6.0,0,296721,2.0,1.0,1.0,1.0,2.0,2.0,2.0,1.0,1.0,1.0,2.0,2.0,1.0,2.0,2.0,0.0,2.0,1.0,2.0,0.0,2.0,2.0,2.0,2.0,2.0,2.0,2.0,2.0,2.0,2.0,2.0,2.0,2.0,2.0,2.0
907424569277016641,0.0,hanoi,7,21.0109379,105.822339,REGULAR,Studio Thái Hà 40m2 near Novotel,private_room,0,0.0,0.0,0.0,0,373435,2.0,2.0,1.0,1.0,1.0,2.0,1.0,2.0,1.0,1.0,1.0,2.0,2.0,2.0,2.0,0.0,2.0,2.0,2.0,0.0,2.0,2.0,2.0,2.0,2.0,2.0,2.0,2.0,2.0,2.0,2.0,2.0,2.0,2.0,2.0
29422956,4.84,hanoi,17,21.02498,105.83684,REGULAR,Phòng riêng gần Đền Văn học,private_room,63,1.0,1.0,5.0,0,296721,2.0,1.0,1.0,1.0,1.0,2.0,1.0,1.0,1.0,1.0,2.0,2.0,2.0,2.0,2.0,0.0,2.0,2.0,2.0,0.0,2.0,2.0,2.0,2.0,2.0,2.0,2.0,2.0,2.0,2.0,2.0,2.0,2.0,2.0,2.0
804624989776537808,4.71,hanoi,13,21.03237,105.8449,REGULAR,Mia 's Home ở Khu phố cổ/Ban công/Tầm nhìn thành phố/Thang máy,entire_home,7,0.0,0.0,0.0,0,472447,2.0,2.0,1.0,1.0,1.0,2.0,2.0,1.0,2.0,2.0,1.0,2.0,1.0,1.0,2.0,0.0,2.0,2.0,2.0,0.0,1.0,2.0,2.0,2.0,2.0,2.0,2.0,2.0,2.0,2.0,2.0,2.0,2.0,2.0,2.0
829744509781957088,0.0,hanoi,7,21.02442,105.85545,REGULAR,*New listing Sale!* Travellers-friendly Studio,private_room,0,0.0,0.0,0.0,0,319530,2.0,2.0,2.0,1.0,1.0,2.0,2.0,1.0,1.0,1.0,1.0,2.0,2.0,2.0,2.0,2.0,2.0,1.0,2.0,2.0,2.0,2.0,2.0,2.0,1.0,2.0,2.0,2.0,1.0,2.0,2.0,1.0,2.0,2.0,2.0
685220543219968997,4.52,hanoi,17,21.03,105.85084,REGULAR,"!!!Condo in center Old Quarter, Cathedral, Ho Guom",private_room,33,0.0,0.0,0.0,0,385546,2.0,2.0,2.0,1.0,1.0,2.0,1.0,2.0,1.0,1.0,2.0,2.0,1.0,2.0,2.0,2.0,2.0,1.0,2.0,2.0,2.0,2.0,1.0,2.0,2.0,1.0,1.0,2.0,2.0,2.0,2.0,2.0,2.0,2.0,2.0
778280174627930771,4.71,hanoi,17,21.0326,105.85335,REGULAR,Mind Room - Comfy & Friendly - Trung tâm phố cổ,private_room,14,1.0,1.0,0.5833333333333334,0,481311,3.0,2.0,1.0,1.0,1.0,2.0,1.0,2.0,2.0,1.0,1.0,2.0,1.0,1.0,2.0,0.0,2.0,2.0,0.0,2.0,2.0,2.0,2.0,2.0,2.0,2.0,2.0,2.0,2.0,2.0,2.0,2.0,2.0,2.0,2.0
37257884,5.0,hanoi,26,21.037215515794866,105.8141822458787,REGULAR,HiHome*Cozy Double Room*HaNoi/near Lotte/Vin,private_room,4,0.0,1.0,5.0,0,365177,2.0,1.0,2.0,1.0,1.0,2.0,1.0,1.0,2.0,1.0,1.0,1.0,2.0,1.0,2.0,0.0,2.0,2.0,2.0,2.0,2.0,2.0,2.0,2.0,2.0,2.0,2.0,2.0,2.0,2.0,2.0,2.0,2.0,2.0,2.0
934674263312359078,0.0,hanoi,8,21.0353569,105.8108514,REGULAR,-25% Super comfortable studio in central location,private_room,0,1.0,1.0,0.0,0,502118,2.0,1.0,1.0,1.0,1.0,2.0,2.0,1.0,1.0,2.0,1.0,2.0,1.0,1.0,2.0,2.0,2.0,2.0,2.0,2.0,2.0,1.0,2.0,2.0,2.0,2.0,2.0,2.0,2.0,2.0,2.0,2.0,2.0,2.0,2.0
916317271979779759,4.5,hanoi,13,21.02732,105.85749,REGULAR,Downtown Green Home 3,entire_home,4,0.0,0.0,0.0,0,407425,2.0,2.0,1.0,1.0,1.0,2.0,2.0,1.0,1.0,1.0,1.0,2.0,2.0,2.0,1.0,0.0,2.0,2.0,2.0,0.0,2.0,2.0,2.0,2.0,2.0,2.0,2.0,2.0,2.0,2.0,2.0,2.0,2.0,2.0,2.0
36722199,4.75,hanoi,14,21.00343,105.86031,REGULAR,Ngôi nhà ấm cúng trong cửa sổ rộng ở giữa - Góc nhìn thoáng mát. R #302,private_room,48,0.0,1.0,4.0,0,323718,2.0,1.0,1.0,1.0,1.0,2.0,2.0,2.0,1.0,1.0,2.0,2.0,2.0,2.0,2.0,0.0,2.0,1.0,2.0,0.0,2.0,2.0,1.0,2.0,2.0,2.0,2.0,2.0,2.0,2.0,2.0,2.0,2.0,2.0,2.0
870118745112046288,0.0,hanoi,9,21.03284,105.81013,REGULAR,2 studio near westlake and lotte badinh,private_room,2,0.0,1.0,0.8333333333333334,0,359927,2.0,1.0,1.0,1.0,1.0,1.0,1.0,1.0,1.0,1.0,1.0,2.0,2.0,2.0,2.0,2.0,2.0,2.0,2.0,2.0,2.0,2.0,2.0,2.0,2.0,2.0,2.0,2.0,2.0,2.0,2.0,2.0,2.0,2.0,2.0
746322085943335360,4.67,hanoi,19,21.05039,105.83971,REGULAR,Căn hộ phong cách với không gian xanh gần hồ Tây,private_room,15,1.0,1.0,0.75,0,314461,2.0,1.0,1.0,1.0,1.0,2.0,2.0,1.0,1.0,2.0,2.0,2.0,2.0,2.0,2.0,0.0,2.0,2.0,2.0,0.0,1.0,2.0,2.0,2.0,2.0,2.0,2.0,2.0,2.0,2.0,2.0,2.0,2.0,2.0,2.0
924905403467355931,0.0,hanoi,8,21.0341811,105.8329803,REGULAR,Le Shu Apt * 5 mins to Old Town,private_room,0,0.0,1.0,0.0,0,390259,2.0,2.0,2.0,1.0,2.0,1.0,2.0,1.0,2.0,1.0,2.0,2.0,1.0,1.0,2.0,0.0,1.0,2.0,0.0,0.0,2.0,2.0,2.0,2.0,2.0,2.0,2.0,2.0,2.0,2.0,2.0,2.0,2.0,2.0,2.0
852001341076676351,4.4,hanoi,12,21.0293002,105.8491782,REGULAR,GEM-Topaz,private_room,5,0.0,1.0,0.5,0,345741,3.0,2.0,2.0,1.0,1.0,2.0,2.0,1.0,2.0,1.0,2.0,2.0,1.0,2.0,2.0,0.0,2.0,1.0,0.0,0.0,2.0,2.0,2.0,2.0,1.0,2.0,2.0,2.0,2.0,2.0,2.0,2.0,2.0,2.0,2.0
927984607019444573,0.0,hanoi,12,21.03186885232184,105.84929322378862,REGULAR,The Art - Graffiti House,private_room,0,0.0,1.0,0.0,0,494064,2.0,1.0,1.0,1.0,2.0,2.0,2.0,1.0,1.0,2.0,1.0,2.0,2.0,2.0,2.0,2.0,2.0,2.0,2.0,2.0,2.0,2.0,2.0,2.0,2.0,2.0,2.0,2.0,2.0,2.0,2.0,2.0,2.0,2.0,2.0
43808002,4.78,hanoi,30,21.02416,105.8488,REGULAR,HBT Homestay-Hanoi Center-Hoàn Kiếm District-R#302,private_room,18,0.0,0.0,0.0,0,456471,2.0,2.0,1.0,1.0,2.0,2.0,2.0,2.0,1.0,1.0,2.0,2.0,2.0,2.0,2.0,0.0,2.0,1.0,2.0,2.0,2.0,2.0,1.0,2.0,1.0,2.0,2.0,1.0,2.0,2.0,2.0,1.0,2.0,2.0,2.0
927826962585989467,0.0,hanoi,12,21.0289621,105.8500674,REGULAR,Rue Des Chats*1mins to Cathedral,private_room,0,0.0,0.0,0.0,0,469023,2.0,2.0,1.0,1.0,2.0,1.0,2.0,1.0,1.0,1.0,2.0,2.0,2.0,2.0,2.0,0.0,1.0,2.0,2.0,0.0,2.0,2.0,2.0,2.0,1.0,2.0,2.0,2.0,2.0,2.0,2.0,2.0,2.0,2.0,2.0
688931017381871050,4.38,hanoi,6,21.0312745,105.8500957,REGULAR,"Condo 2 balcony in center Old Quarter, Ho Guom",private_room,39,0.0,0.0,0.0,0,397138,2.0,2.0,2.0,1.0,1.0,2.0,1.0,2.0,2.0,1.0,2.0,1.0,1.0,2.0,2.0,2.0,2.0,1.0,2.0,2.0,2.0,2.0,2.0,1.0,2.0,1.0,1.0,2.0,2.0,2.0,2.0,2.0,2.0,2.0,2.0
924665475588354817,0.0,hanoi,13,21.05850944457178,105.83428840791832,REGULAR,R4 Studio chợ hoa Tây Hồ.,private_room,0,0.0,0.0,0.0,0,433739,2.0,2.0,1.0,1.0,1.0,2.0,1.0,1.0,2.0,2.0,1.0,2.0,1.0,2.0,2.0,0.0,2.0,2.0,2.0,0.0,1.0,2.0,2.0,2.0,2.0,2.0,2.0,2.0,2.0,2.0,2.0,2.0,2.0,2.0,2.0
843361253017642587,3.67,hanoi,8,21.0333701,105.811266,REGULAR,Studiomini near westlake and lotteBaDinh,private_room,3,0.0,0.0,0.0,0,390283,2.0,2.0,1.0,1.0,1.0,1.0,1.0,1.0,2.0,2.0,1.0,2.0,1.0,2.0,2.0,0.0,2.0,2.0,2.0,2.0,1.0,2.0,2.0,2.0,2.0,2.0,2.0,2.0,2.0,2.0,2.0,2.0,2.0,2.0,2.0
935900274980958111,0.0,hanoi,17,21.02453255405004,105.84177669000609,REGULAR,Studio near Hanoi Station,private_room,0,0.0,0.0,0.0,0,388463,2.0,2.0,1.0,1.0,2.0,2.0,2.0,1.0,1.0,1.0,1.0,2.0,2.0,2.0,2.0,0.0,2.0,2.0,2.0,0.0,2.0,2.0,2.0,2.0,2.0,2.0,2.0,1.0,2.0,2.0,2.0,1.0,2.0,2.0,2.0
48741493,4.18,hanoi,9,21.04642,105.80145,REGULAR,"R202 - Nit và studio đẹp ở Cầu Giấy, Hà Nội",private_room,11,0.0,1.0,5.0,0,456471,2.0,2.0,1.0,1.0,1.0,1.0,2.0,1.0,1.0,2.0,2.0,2.0,1.0,2.0,2.0,0.0,2.0,2.0,0.0,2.0,2.0,1.0,2.0,2.0,2.0,2.0,2.0,2.0,2.0,2.0,2.0,2.0,2.0,2.0,2.0
613431475800553165,4.44,hanoi,16,21.036753,105.852882,REGULAR,"Trái tim của khu phố cổ với máy chiếu, tầm nhìn đáng yêu",entire_home,25,0.0,0.0,0.0,0,374306,2.0,2.0,1.0,1.0,1.0,2.0,2.0,1.0,2.0,2.0,1.0,2.0,1.0,2.0,2.0,0.0,2.0,2.0,2.0,0.0,2.0,2.0,2.0,1.0,1.0,2.0,2.0,2.0,2.0,2.0,2.0,2.0,2.0,2.0,2.0
758147381663051289,5.0,hanoi,7,21.03388,105.85356,REGULAR,Discovery homestay cosy single,private_room,3,0.0,0.0,0.0,0,285294,1.0,2.0,2.0,1.0,2.0,2.0,2.0,1.0,2.0,1.0,1.0,2.0,2.0,2.0,2.0,0.0,2.0,1.0,2.0,0.0,2.0,2.0,1.0,2.0,2.0,2.0,2.0,2.0,2.0,2.0,2.0,2.0,2.0,2.0,2.0
827243760166477549,0.0,hanoi,5,21.02496,105.85418,REGULAR,*New listing Sale!* Balcony Studio in Hoan Kiem,private_room,0,0.0,0.0,0.0,0,328659,2.0,2.0,2.0,1.0,1.0,2.0,2.0,1.0,1.0,1.0,1.0,2.0,2.0,2.0,2.0,0.0,2.0,2.0,2.0,2.0,2.0,2.0,1.0,1.0,1.0,2.0,2.0,2.0,2.0,2.0,2.0,2.0,2.0,2.0,2.0
783995150887707434,4.67,hanoi,19,21.033519872040845,105.85238091904907,REGULAR,Sapphire Room - Gác xép độc lạ Ngõ Trung Yên,private_room,12,1.0,1.0,0.5833333333333334,0,414218,3.0,2.0,1.0,1.0,1.0,2.0,1.0,2.0,2.0,2.0,1.0,2.0,1.0,1.0,2.0,0.0,2.0,2.0,0.0,2.0,2.0,1.0,2.0,2.0,2.0,2.0,2.0,2.0,2.0,2.0,2.0,2.0,2.0,2.0,2.0
52978253,5.0,hanoi,21,21.03292,105.80711,REGULAR,"Căn hộ ấm cúng, thân thiện ở trung tâm thành phố",private_room,48,1.0,1.0,2.0,0,399412,2.0,1.0,1.0,1.0,1.0,2.0,2.0,1.0,1.0,1.0,2.0,2.0,2.0,1.0,2.0,0.0,2.0,2.0,2.0,0.0,2.0,2.0,2.0,2.0,2.0,2.0,2.0,2.0,2.0,2.0,2.0,2.0,2.0,2.0,2.0
661422925069945305,4.56,hanoi,9,21.02843,105.84775,REGULAR,*OLDQUARTER*Nhà thờ HÀ NỘI*CỦ CẢI,private_room,9,0.0,1.0,4.0,0,377694,2.0,1.0,1.0,1.0,2.0,2.0,2.0,1.0,2.0,1.0,1.0,2.0,2.0,2.0,2.0,0.0,2.0,1.0,2.0,2.0,2.0,2.0,1.0,2.0,2.0,2.0,2.0,2.0,2.0,2.0,2.0,2.0,2.0,2.0,2.0
35044258,4.52,hanoi,11,21.04539,105.78549,REGULAR,Studio ấm cúng & hiện đại *Trung tâm thành phố *10 phút đến Hồ Tây,entire_home,31,0.0,0.0,0.0,0,432506,6.0,2.0,1.0,1.0,2.0,2.0,2.0,1.0,1.0,1.0,2.0,2.0,1.0,1.0,2.0,2.0,2.0,1.0,2.0,2.0,1.0,2.0,2.0,2.0,1.0,2.0,2.0,2.0,2.0,2.0,2.0,2.0,2.0,2.0,2.0
825829918200290669,5.0,hanoi,7,21.0189403,105.7768348,REGULAR,Căn hộ cho thuê tại MyDinh,entire_home,3,0.0,0.0,0.0,0,350000,2.0,2.0,1.0,1.0,1.0,2.0,2.0,1.0,1.0,1.0,1.0,2.0,2.0,2.0,2.0,0.0,2.0,2.0,2.0,0.0,2.0,2.0,2.0,2.0,2.0,2.0,2.0,2.0,2.0,2.0,2.0,2.0,2.0,2.0,2.0
911845793113843796,0.0,hanoi,14,21.0223852,105.8596261,REGULAR,Alluring 1 | Mới được xây | Gần Nhà Hát Lớn,private_room,1,0.0,1.0,0.08333333333333333,0,412035,3.0,1.0,1.0,1.0,1.0,2.0,1.0,2.0,2.0,2.0,1.0,2.0,1.0,2.0,2.0,0.0,2.0,2.0,2.0,0.0,2.0,2.0,2.0,1.0,2.0,2.0,2.0,2.0,2.0,2.0,2.0,2.0,2.0,2.0,2.0
22350458,4.89,hanoi,21,21.03725,105.82192,REGULAR,"Sống cùng gia đình bản xứ #4 (phòng Sapa, dễ thương & quyến rũ)",private_room,122,1.0,1.0,6.0,0,377663,2.0,1.0,1.0,1.0,1.0,2.0,2.0,1.0,2.0,1.0,2.0,2.0,1.0,1.0,2.0,0.0,2.0,2.0,2.0,0.0,2.0,2.0,2.0,2.0,2.0,2.0,2.0,2.0,2.0,2.0,2.0,2.0,2.0,2.0,2.0
42551100,4.5,hanoi,10,21.01973,105.86276,REGULAR,[Nhà ven sông] Căn hộ 1 phòng ngủ view sông thoáng mát.,entire_home,16,0.0,0.0,0.0,0,461961,3.0,2.0,1.0,1.0,1.0,2.0,2.0,1.0,1.0,1.0,2.0,2.0,2.0,2.0,1.0,2.0,2.0,1.0,2.0,2.0,1.0,2.0,2.0,2.0,2.0,2.0,2.0,1.0,2.0,2.0,2.0,2.0,2.0,2.0,2.0
774579236697560281,4.9,hanoi,20,21.0262038,105.8436506,REGULAR,Budget Room - 80s Retro Style - Outdoor Terrace,private_room,20,1.0,1.0,3.0,0,359471,2.0,1.0,1.0,1.0,1.0,2.0,1.0,2.0,2.0,1.0,2.0,2.0,1.0,2.0,2.0,0.0,2.0,2.0,2.0,0.0,2.0,2.0,1.0,2.0,2.0,2.0,2.0,2.0,2.0,2.0,2.0,2.0,2.0,2.0,2.0
932401152124496990,0.0,hanoi,24,21.035565278885304,105.8512499389217,REGULAR,AN_Cozy Family Triple Room/ Smart TV/ Check in 247,private_room,0,0.0,1.0,0.0,0,412800,3.0,1.0,2.0,1.0,1.0,2.0,1.0,1.0,2.0,1.0,1.0,2.0,2.0,2.0,2.0,0.0,2.0,2.0,2.0,0.0,2.0,2.0,2.0,1.0,2.0,2.0,2.0,2.0,2.0,2.0,2.0,2.0,2.0,2.0,2.0
680107379033087125,4.67,hanoi,16,21.0295,105.84718,REGULAR,Căn hộ số1 phút đến Nhà thờ Vogue,private_room,6,0.0,1.0,5.0,0,492659,2.0,1.0,1.0,1.0,1.0,2.0,1.0,1.0,2.0,1.0,2.0,2.0,2.0,2.0,2.0,2.0,2.0,2.0,2.0,2.0,2.0,2.0,1.0,2.0,2.0,2.0,2.0,2.0,1.0,1.0,2.0,2.0,2.0,2.0,2.0
936720149795485988,0.0,hanoi,11,21.065579617343985,105.82830569422066,REGULAR,"R5 Studio chợ hoa Tây Hồ, Hà Nội.",private_room,0,0.0,0.0,0.0,0,437607,2.0,2.0,1.0,1.0,1.0,2.0,1.0,1.0,1.0,2.0,1.0,2.0,1.0,2.0,2.0,0.0,2.0,2.0,2.0,0.0,2.0,2.0,2.0,2.0,2.0,2.0,2.0,2.0,2.0,2.0,2.0,2.0,2.0,2.0,2.0
935904934860884804,0.0,hanoi,13,21.02452824139229,105.84170647046994,REGULAR,Room watching Hanoi Station,private_room,0,0.0,0.0,0.0,0,410042,2.0,2.0,1.0,1.0,2.0,2.0,2.0,1.0,1.0,1.0,1.0,2.0,2.0,2.0,2.0,0.0,2.0,2.0,2.0,0.0,2.0,2.0,2.0,2.0,2.0,2.0,2.0,1.0,2.0,2.0,2.0,1.0,2.0,2.0,2.0
822920715228021835,0.0,hanoi,20,21.0117003,105.8155815,REGULAR,"Nhà Như Ngọc- tiện lợi, an toàn",entire_home,0,0.0,0.0,0.0,0,374877,2.0,2.0,1.0,1.0,1.0,2.0,1.0,1.0,2.0,2.0,1.0,2.0,1.0,1.0,2.0,0.0,2.0,2.0,2.0,2.0,2.0,2.0,2.0,1.0,2.0,2.0,2.0,2.0,2.0,2.0,2.0,2.0,2.0,2.0,2.0
869297679646710739,0.0,hanoi,6,21.01852,105.7772,REGULAR,"Căn hộ sudio cho thuê, thoáng",entire_home,0,0.0,0.0,0.0,0,313500,1.0,2.0,1.0,1.0,1.0,2.0,2.0,1.0,1.0,1.0,1.0,2.0,1.0,2.0,2.0,0.0,2.0,2.0,2.0,0.0,2.0,2.0,2.0,2.0,2.0,2.0,2.0,2.0,2.0,2.0,2.0,2.0,2.0,2.0,2.0
24218923,4.79,hanoi,14,21.02973,105.80951,REGULAR,Căn hộ Ba Đình Studio với tầm nhìn ra thành phố,entire_home,14,0.0,0.0,0.0,0,445059,2.0,2.0,1.0,1.0,1.0,2.0,2.0,1.0,1.0,2.0,2.0,2.0,1.0,2.0,2.0,0.0,2.0,2.0,2.0,0.0,1.0,1.0,2.0,2.0,2.0,2.0,2.0,2.0,2.0,2.0,2.0,2.0,2.0,2.0,2.0
36694297,4.88,hanoi,21,21.05139,105.83713,REGULAR,V 's Home Westlake. Ngôi nhà ấm cúng gần Westlake 302,private_room,24,1.0,1.0,4.0,0,287051,1.0,1.0,1.0,1.0,1.0,2.0,2.0,2.0,1.0,1.0,2.0,2.0,1.0,2.0,2.0,0.0,2.0,2.0,2.0,0.0,1.0,2.0,2.0,2.0,2.0,2.0,2.0,2.0,2.0,2.0,2.0,2.0,2.0,2.0,2.0
907983249626968344,0.0,hanoi,20,21.0445411,105.8177295,REGULAR,Cozy studio- Private washroom/kitchen-WestLake-101,private_room,1,0.0,1.0,0.08333333333333333,0,412437,2.0,1.0,1.0,1.0,1.0,2.0,2.0,2.0,2.0,2.0,1.0,2.0,1.0,1.0,2.0,0.0,2.0,2.0,2.0,0.0,1.0,2.0,2.0,2.0,2.0,2.0,2.0,2.0,2.0,2.0,2.0,2.0,2.0,2.0,2.0
930214359321432932,0.0,hanoi,5,21.0168723053616,105.85355882787732,REGULAR,Budget Double room/Share kitchen,private_room,0,0.0,1.0,0.0,0,307312,2.0,1.0,2.0,1.0,1.0,2.0,2.0,1.0,2.0,1.0,1.0,2.0,2.0,2.0,2.0,0.0,2.0,2.0,2.0,0.0,2.0,2.0,2.0,2.0,2.0,2.0,2.0,2.0,2.0,2.0,2.0,2.0,2.0,2.0,2.0
46229103,4.75,hanoi,19,21.1186,105.80347,REGULAR,Green Homestay,private_room,8,0.0,1.0,3.0,0,324540,2.0,1.0,1.0,1.0,2.0,2.0,1.0,1.0,2.0,2.0,2.0,2.0,1.0,2.0,2.0,0.0,2.0,2.0,2.0,0.0,1.0,2.0,2.0,1.0,2.0,2.0,2.0,2.0,2.0,2.0,2.0,2.0,2.0,2.0,2.0
882139066014345637,0.0,hanoi,6,21.03343,105.81739,REGULAR,"H&A Homestay / 40m Large Room, Full Amenities",private_room,0,0.0,1.0,0.0,0,410824,2.0,1.0,1.0,1.0,1.0,2.0,2.0,2.0,1.0,2.0,2.0,1.0,1.0,2.0,2.0,0.0,2.0,2.0,2.0,0.0,2.0,2.0,2.0,1.0,2.0,2.0,2.0,2.0,2.0,2.0,2.0,2.0,2.0,2.0,2.0
628478416887162501,4.62,hanoi,21,21.021695,105.85979,REGULAR,Phòng ánh sáng mặt trời gần Nhà hát Lớn,private_room,13,0.0,1.0,0.9166666666666666,0,377164,2.0,1.0,1.0,1.0,1.0,2.0,2.0,1.0,1.0,1.0,1.0,2.0,1.0,2.0,2.0,0.0,2.0,2.0,2.0,2.0,2.0,2.0,2.0,2.0,2.0,2.0,2.0,2.0,2.0,2.0,2.0,2.0,2.0,2.0,2.0
36681116,4.64,hanoi,18,20.99918,105.86251,REGULAR,Ngôi nhà ấm cúng ở góc nhìn thoáng mát trên toàn trung tâm. R#202,private_room,45,0.0,1.0,4.0,0,323718,2.0,1.0,1.0,1.0,1.0,2.0,2.0,2.0,1.0,1.0,2.0,2.0,2.0,2.0,2.0,0.0,2.0,1.0,2.0,0.0,2.0,2.0,1.0,2.0,2.0,2.0,2.0,2.0,2.0,2.0,2.0,2.0,2.0,2.0,2.0
891201796752186763,0.0,hanoi,19,21.04534,105.81742,REGULAR,Fully-equipped modern studio next to West Lake 202,private_room,1,0.0,1.0,0.08333333333333333,0,440188,2.0,1.0,1.0,1.0,1.0,2.0,2.0,2.0,2.0,2.0,1.0,2.0,1.0,1.0,2.0,0.0,2.0,2.0,2.0,0.0,1.0,2.0,2.0,2.0,2.0,2.0,2.0,2.0,2.0,2.0,2.0,2.0,2.0,2.0,2.0
928212359564169097,0.0,hanoi,8,21.0353569,105.8108514,REGULAR,-25% Apartment full of amenities of NB,private_room,0,0.0,0.0,0.0,0,502118,2.0,2.0,1.0,1.0,1.0,2.0,2.0,1.0,1.0,2.0,1.0,2.0,1.0,1.0,2.0,2.0,2.0,2.0,2.0,2.0,2.0,1.0,2.0,2.0,1.0,2.0,2.0,2.0,2.0,2.0,2.0,2.0,2.0,2.0,2.0
907573362134858737,5.0,hanoi,15,21.068077801257886,105.82254309207201,REGULAR,KEM HOME 2- Charming Bright* West Lake,entire_home,3,0.0,0.0,0.0,0,474730,2.0,2.0,1.0,1.0,1.0,2.0,2.0,1.0,1.0,1.0,1.0,2.0,1.0,2.0,2.0,0.0,2.0,2.0,2.0,0.0,2.0,2.0,2.0,2.0,2.0,2.0,2.0,2.0,2.0,2.0,2.0,2.0,2.0,2.0,2.0
630643621269241930,4.84,hanoi,17,21.03392,105.853676,REGULAR,Reale F5-3 - Chuyến phiêu lưu mới trong khu phố cổ,shared_room,19,0.0,0.0,0.0,0,273882,1.0,2.0,2.0,1.0,2.0,2.0,2.0,2.0,2.0,1.0,1.0,2.0,2.0,2.0,1.0,0.0,2.0,2.0,2.0,2.0,2.0,2.0,2.0,2.0,2.0,2.0,2.0,2.0,2.0,2.0,2.0,2.0,1.0,2.0,2.0
922153641990302056,0.0,hanoi,13,21.01141230755941,105.85943821817636,REGULAR,Cửa sổ lớn-gần trung tâm-bếp,private_room,0,0.0,1.0,0.0,0,366884,2.0,1.0,1.0,1.0,1.0,2.0,2.0,1.0,1.0,2.0,1.0,2.0,1.0,2.0,2.0,0.0,2.0,2.0,2.0,0.0,2.0,2.0,2.0,2.0,2.0,2.0,2.0,2.0,2.0,2.0,2.0,2.0,2.0,2.0,2.0
917872658470178912,0.0,hanoi,17,21.0232781,105.8594468,REGULAR,charming house center Hoan Kiem,private_room,0,1.0,1.0,0.0,0,451141,3.0,1.0,1.0,1.0,1.0,2.0,2.0,2.0,2.0,2.0,1.0,2.0,1.0,2.0,2.0,0.0,2.0,2.0,2.0,0.0,1.0,2.0,2.0,1.0,2.0,2.0,2.0,2.0,2.0,2.0,2.0,2.0,2.0,2.0,2.0
43152213,4.67,hanoi,19,21.03221,105.84624,REGULAR,Toàn cảnh tầng thượng*Khu phố cổ*Thang máy và giặt,entire_home,30,0.0,0.0,0.0,0,487866,2.0,2.0,1.0,1.0,2.0,2.0,2.0,1.0,1.0,1.0,2.0,2.0,1.0,1.0,2.0,0.0,2.0,1.0,2.0,0.0,2.0,2.0,2.0,2.0,2.0,2.0,2.0,2.0,2.0,2.0,2.0,2.0,2.0,2.0,2.0
929988128092355665,0.0,hanoi,14,21.035464993814532,105.79604716254549,REGULAR,Sun room Chùa Hà,private_room,0,0.0,0.0,0.0,0,431608,2.0,2.0,1.0,1.0,1.0,1.0,1.0,1.0,1.0,1.0,1.0,2.0,2.0,2.0,2.0,2.0,2.0,2.0,2.0,2.0,2.0,2.0,2.0,2.0,1.0,2.0,2.0,2.0,2.0,2.0,2.0,2.0,2.0,2.0,2.0
661914022530614120,4.97,hanoi,13,21.02278,105.83206,REGULAR,Yue 越 Homestay #2 @yueviet,private_room,77,1.0,1.0,2.0,0,450724,2.0,1.0,2.0,1.0,1.0,2.0,2.0,1.0,2.0,1.0,1.0,2.0,1.0,2.0,1.0,0.0,2.0,2.0,2.0,2.0,1.0,2.0,2.0,2.0,2.0,2.0,2.0,2.0,2.0,2.0,2.0,2.0,2.0,2.0,2.0
906089185926256928,0.0,hanoi,8,21.0189055,105.7758082,REGULAR,eterbe house - Căn hộ cao cấp Đình Thôn,private_room,1,0.0,1.0,0.16666666666666666,0,362405,2.0,2.0,1.0,1.0,2.0,2.0,2.0,2.0,1.0,1.0,1.0,2.0,1.0,1.0,2.0,0.0,2.0,2.0,0.0,2.0,2.0,2.0,2.0,2.0,1.0,2.0,2.0,2.0,2.0,2.0,2.0,2.0,2.0,2.0,2.0
42399247,0.0,hanoi,19,20.98732,105.79527,REGULAR,Phòng riêng gần Đại học Hà Nội,private_room,2,0.0,1.0,4.0,0,323483,2.0,1.0,1.0,1.0,1.0,2.0,2.0,2.0,1.0,1.0,2.0,2.0,1.0,2.0,2.0,0.0,2.0,2.0,2.0,0.0,2.0,2.0,2.0,2.0,1.0,2.0,2.0,2.0,2.0,2.0,2.0,2.0,2.0,2.0,2.0
777936280045264869,4.82,hanoi,6,21.04225,105.83952,REGULAR,Căn studio siêu tiện nghi trung tâm Q. Ba Đình,private_room,22,0.0,0.0,0.0,0,478153,2.0,2.0,1.0,1.0,2.0,2.0,2.0,1.0,2.0,1.0,1.0,2.0,2.0,1.0,2.0,0.0,2.0,1.0,2.0,0.0,2.0,2.0,2.0,2.0,2.0,2.0,2.0,1.0,2.0,2.0,2.0,2.0,2.0,2.0,2.0
922784212248280523,0.0,hanoi,9,21.0310859,105.8500959,REGULAR,Lovelycondo in center OldQuarter,private_room,1,0.0,1.0,0.08333333333333333,0,368565,2.0,1.0,2.0,1.0,1.0,2.0,1.0,2.0,1.0,1.0,2.0,2.0,2.0,2.0,2.0,2.0,2.0,1.0,2.0,2.0,2.0,2.0,2.0,2.0,2.0,2.0,1.0,1.0,2.0,2.0,2.0,2.0,2.0,1.0,2.0
772939734836349147,0.0,hanoi,8,21.068723956601414,105.8220838080439,REGULAR,"A simple room, with a cat.",private_room,0,0.0,0.0,0.0,0,426218,2.0,2.0,1.0,1.0,2.0,2.0,1.0,2.0,1.0,1.0,2.0,2.0,1.0,2.0,2.0,0.0,2.0,2.0,2.0,0.0,1.0,2.0,2.0,2.0,1.0,2.0,2.0,2.0,2.0,2.0,2.0,2.0,2.0,2.0,2.0
934500150526310520,0.0,hanoi,5,21.032972314974725,105.79042413431009,REGULAR,"Căn hộ nhỏ xinh, riêng tư",entire_home,0,0.0,0.0,0.0,0,401870,2.0,2.0,1.0,1.0,2.0,2.0,2.0,1.0,1.0,1.0,1.0,2.0,1.0,2.0,2.0,0.0,2.0,2.0,2.0,0.0,2.0,2.0,2.0,2.0,2.0,2.0,2.0,2.0,2.0,2.0,2.0,2.0,2.0,2.0,2.0
875633573374270267,0.0,hanoi,11,21.01348,105.86501,REGULAR,Cho thuê căn hộ 1 phòng ngủ R602,private_room,1,0.0,1.0,0.25,0,502118,2.0,2.0,1.0,1.0,1.0,2.0,1.0,1.0,2.0,1.0,1.0,2.0,1.0,2.0,2.0,2.0,2.0,2.0,0.0,2.0,2.0,2.0,1.0,2.0,2.0,2.0,2.0,2.0,2.0,2.0,2.0,2.0,2.0,2.0,2.0
877861305243818865,4.64,hanoi,10,21.03636,105.85278,REGULAR,Studio,entire_home,11,0.0,0.0,0.0,0,456471,3.0,2.0,2.0,1.0,2.0,2.0,2.0,1.0,2.0,1.0,2.0,2.0,2.0,2.0,2.0,0.0,2.0,2.0,2.0,0.0,2.0,2.0,2.0,2.0,2.0,2.0,2.0,2.0,2.0,2.0,2.0,2.0,2.0,2.0,2.0
740053486028534848,4.79,hanoi,15,21.05026,105.83937,REGULAR,Căn hộ view hồ thoáng mát với không gian xanh,private_room,34,1.0,1.0,0.75,0,392518,2.0,2.0,1.0,1.0,1.0,1.0,2.0,1.0,2.0,2.0,2.0,2.0,1.0,2.0,2.0,0.0,2.0,2.0,0.0,0.0,1.0,2.0,2.0,2.0,2.0,2.0,2.0,2.0,2.0,2.0,2.0,2.0,2.0,2.0,2.0
684318065354819712,4.39,hanoi,10,21.0192407,105.8527467,REGULAR,Vị trí trung tâm - Ban công Homestay,entire_home,36,0.0,0.0,0.0,0,445059,2.0,2.0,1.0,1.0,1.0,2.0,1.0,2.0,1.0,1.0,2.0,2.0,1.0,2.0,2.0,0.0,2.0,2.0,2.0,0.0,2.0,2.0,1.0,2.0,2.0,2.0,2.0,2.0,2.0,2.0,2.0,2.0,2.0,2.0,2.0
829744398969366775,0.0,hanoi,5,21.026049795157192,105.85610145211795,REGULAR,Bright & Spacious Room in Central Hanoi,private_room,0,0.0,0.0,0.0,0,459247,3.0,2.0,1.0,1.0,1.0,2.0,2.0,1.0,1.0,1.0,1.0,2.0,1.0,2.0,2.0,2.0,2.0,2.0,2.0,2.0,2.0,2.0,2.0,2.0,2.0,2.0,2.0,2.0,2.0,2.0,2.0,2.0,2.0,2.0,2.0
935137551405371942,0.0,hanoi,6,20.969594390510352,105.79836465418339,REGULAR,Cozy white place in Ha Dong,private_room,0,0.0,0.0,0.0,0,275899,2.0,2.0,1.0,1.0,1.0,2.0,2.0,2.0,1.0,1.0,1.0,2.0,2.0,2.0,2.0,0.0,2.0,1.0,2.0,0.0,2.0,2.0,2.0,2.0,1.0,2.0,2.0,2.0,2.0,2.0,2.0,2.0,2.0,2.0,2.0
41396609,4.75,hanoi,29,21.02105,105.84697,REGULAR,Vequehomestay✩villa11✩NetflixTV✩VS riêng✩Sân để xe,private_room,89,0.0,1.0,7.0,0,370099,2.0,2.0,2.0,1.0,2.0,2.0,1.0,1.0,1.0,1.0,2.0,2.0,2.0,2.0,2.0,0.0,2.0,1.0,0.0,0.0,1.0,2.0,2.0,2.0,2.0,2.0,2.0,2.0,2.0,2.0,2.0,2.0,2.0,2.0,2.0
802500174647948776,4.5,hanoi,18,20.99117,105.87035,REGULAR,Phòng ấm cúng và riêng tư tại TimesCity ParkHill,private_room,6,0.0,1.0,0.4166666666666667,0,339500,2.0,1.0,1.0,1.0,1.0,2.0,1.0,2.0,2.0,2.0,1.0,2.0,1.0,2.0,2.0,2.0,2.0,2.0,2.0,2.0,2.0,2.0,2.0,1.0,2.0,2.0,2.0,2.0,2.0,2.0,1.0,2.0,2.0,2.0,2.0
927088510293149162,0.0,hanoi,7,21.0301814,105.8505091,REGULAR,Cairo * 50m to Hoan Kiem Lake,private_room,0,0.0,1.0,0.0,0,385010,2.0,2.0,2.0,1.0,1.0,2.0,2.0,1.0,2.0,1.0,2.0,2.0,2.0,1.0,2.0,0.0,2.0,1.0,0.0,0.0,2.0,2.0,2.0,2.0,2.0,2.0,2.0,2.0,2.0,1.0,2.0,2.0,2.0,2.0,2.0
709835938086573677,4.89,hanoi,6,21.04372,105.84103,REGULAR,Căn hộ cao cấp trung tâm Q. Ba Đình,private_room,64,0.0,0.0,0.0,0,433647,2.0,2.0,1.0,1.0,2.0,2.0,2.0,1.0,2.0,1.0,1.0,2.0,2.0,1.0,2.0,0.0,2.0,1.0,2.0,0.0,2.0,2.0,2.0,2.0,2.0,2.0,2.0,1.0,2.0,2.0,2.0,2.0,2.0,2.0,2.0
780792182786545364,5.0,hanoi,27,21.0230565,105.8076453,REGULAR,Modern and comfortable studio in Dong Da,entire_home,5,0.0,0.0,0.0,0,390283,2.0,2.0,1.0,1.0,1.0,2.0,2.0,1.0,1.0,1.0,1.0,2.0,2.0,1.0,2.0,0.0,2.0,2.0,2.0,2.0,2.0,2.0,2.0,2.0,1.0,2.0,2.0,2.0,2.0,2.0,2.0,2.0,2.0,2.0,2.0
722682778367261355,5.0,hanoi,24,21.02417,105.82834,REGULAR,Phòng riêng vui vẻ Có cửa sổ ánh sáng tự nhiên,private_room,3,0.0,1.0,5.0,0,303553,2.0,1.0,1.0,1.0,1.0,2.0,2.0,2.0,2.0,2.0,1.0,1.0,1.0,2.0,2.0,0.0,2.0,2.0,2.0,0.0,2.0,1.0,2.0,2.0,2.0,2.0,2.0,2.0,2.0,2.0,2.0,2.0,2.0,2.0,2.0
825800715037223293,4.8,hanoi,12,21.03853,105.84669,REGULAR,Ngân sách|Trung tâm| Morden Cosy Home,entire_home,5,0.0,0.0,0.0,0,435000,2.0,2.0,1.0,1.0,2.0,2.0,2.0,1.0,2.0,1.0,1.0,2.0,2.0,2.0,1.0,0.0,2.0,1.0,2.0,0.0,2.0,2.0,2.0,2.0,2.0,2.0,2.0,1.0,2.0,2.0,2.0,2.0,2.0,2.0,2.0
18487010,4.61,hanoi,16,21.05485,105.83753,REGULAR,Sống cùng gia đình bản xứ Kim Hà Nội 4,private_room,65,1.0,1.0,6.0,0,323718,2.0,2.0,1.0,1.0,1.0,2.0,2.0,1.0,1.0,2.0,2.0,2.0,1.0,2.0,2.0,0.0,2.0,2.0,0.0,0.0,2.0,2.0,2.0,2.0,1.0,2.0,2.0,2.0,2.0,2.0,2.0,2.0,2.0,2.0,2.0
38589719,4.37,hanoi,7,21.06758,105.82524,REGULAR,Toàn bộ căn hộ ấm cúng/Vị trí thuận tiện/Gần Hồ Tây,entire_home,41,0.0,0.0,0.0,0,461961,2.0,2.0,1.0,1.0,2.0,2.0,2.0,1.0,1.0,1.0,2.0,2.0,1.0,2.0,2.0,0.0,2.0,2.0,2.0,0.0,1.0,2.0,2.0,2.0,1.0,2.0,2.0,2.0,2.0,2.0,2.0,2.0,2.0,2.0,2.0
835896006413135819,4.83,hanoi,20,21.02828,105.84484,REGULAR,The Heart Of Old Quater/ Super Location,entire_home,6,0.0,0.0,0.0,0,453214,3.0,2.0,1.0,1.0,1.0,2.0,1.0,1.0,2.0,1.0,2.0,2.0,1.0,2.0,2.0,0.0,2.0,2.0,2.0,0.0,2.0,2.0,1.0,2.0,2.0,2.0,2.0,2.0,2.0,2.0,2.0,2.0,2.0,2.0,2.0
767745551525121773,4.33,hanoi,18,21.06563,105.82597,REGULAR,Nhà ấm cúng! Studio đẹp! Máy giặt và máy sấy!,entire_home,3,0.0,0.0,0.0,0,379441,2.0,2.0,1.0,1.0,2.0,2.0,2.0,1.0,2.0,1.0,1.0,2.0,2.0,2.0,2.0,0.0,2.0,2.0,2.0,0.0,2.0,2.0,2.0,2.0,2.0,2.0,2.0,2.0,2.0,2.0,2.0,2.0,2.0,2.0,2.0
43785127,4.14,hanoi,17,21.03892,105.84705,REGULAR,Annam❤️Train street★Toàn bộ studio mới❤ ️Xanh bạc hà,entire_home,42,0.0,0.0,0.0,0,406259,2.0,2.0,1.0,1.0,2.0,2.0,2.0,2.0,2.0,1.0,2.0,2.0,1.0,2.0,2.0,0.0,2.0,1.0,2.0,2.0,2.0,2.0,2.0,2.0,2.0,2.0,1.0,1.0,1.0,2.0,2.0,2.0,2.0,2.0,2.0
884522026093493882,0.0,hanoi,20,21.01976,105.85414,REGULAR,Comfort/bathtub/HoanKiem/Cental,private_room,1,0.0,1.0,5.0,0,335680,2.0,1.0,1.0,1.0,2.0,1.0,2.0,2.0,1.0,1.0,1.0,2.0,2.0,2.0,2.0,0.0,2.0,2.0,2.0,0.0,2.0,2.0,2.0,2.0,2.0,2.0,2.0,2.0,2.0,2.0,2.0,2.0,2.0,2.0,2.0
843928904800987551,3.5,hanoi,7,21.0315055,105.855027,REGULAR,"Phòng ấm cúng ở Hồ Gươm, Hoàn Kiếm",private_room,8,0.0,0.0,0.0,0,302778,2.0,2.0,1.0,1.0,1.0,2.0,1.0,2.0,1.0,1.0,2.0,2.0,1.0,2.0,1.0,2.0,2.0,2.0,2.0,2.0,1.0,2.0,1.0,2.0,2.0,2.0,2.0,2.0,2.0,2.0,2.0,2.0,2.0,2.0,2.0
820910277032125283,4.67,hanoi,30,21.06636016486682,105.82550443187714,REGULAR,"Ngôi nhà ấm cúng! Phòng Studio riêng, máy giặt và máy sấy!",entire_home,3,0.0,0.0,0.0,0,421365,2.0,2.0,2.0,1.0,1.0,2.0,1.0,1.0,1.0,1.0,2.0,2.0,1.0,2.0,2.0,0.0,2.0,1.0,2.0,0.0,2.0,2.0,2.0,2.0,2.0,2.0,2.0,2.0,2.0,2.0,2.0,2.0,2.0,2.0,2.0
877417205690112586,0.0,hanoi,18,21.0586862,105.8305557,REGULAR,Hanoi Home 5-Fresh apartment on Westlake peninsula,private_room,1,1.0,1.0,4.0,0,427257,2.0,1.0,1.0,1.0,1.0,2.0,1.0,1.0,2.0,2.0,2.0,2.0,1.0,2.0,2.0,0.0,2.0,2.0,2.0,2.0,1.0,2.0,2.0,1.0,2.0,2.0,2.0,2.0,2.0,2.0,2.0,2.0,2.0,2.0,2.0
804796818122849248,4.72,hanoi,15,21.029270157205495,105.84929621719668,REGULAR,GEM-Sapphire,private_room,18,0.0,1.0,0.5,0,377060,3.0,1.0,2.0,1.0,1.0,2.0,2.0,1.0,1.0,1.0,2.0,2.0,1.0,2.0,2.0,0.0,2.0,2.0,2.0,0.0,2.0,2.0,2.0,2.0,1.0,2.0,2.0,2.0,2.0,2.0,2.0,2.0,2.0,2.0,2.0
927867832239075557,0.0,hanoi,9,21.063853282755034,105.8698816799688,REGULAR,Duc&Thu's Home-Private Room with Balcony Long Bien,private_room,0,0.0,0.0,0.0,0,454554,2.0,2.0,1.0,1.0,1.0,2.0,1.0,2.0,2.0,2.0,1.0,2.0,1.0,2.0,2.0,0.0,2.0,2.0,2.0,0.0,1.0,1.0,2.0,2.0,2.0,2.0,2.0,2.0,2.0,2.0,2.0,2.0,2.0,2.0,2.0
42682438,4.93,hanoi,3,21.02644,105.8341,REGULAR,di tích lịch sử văn hóa,private_room,15,1.0,1.0,3.0,0,285294,1.0,1.0,2.0,1.0,1.0,2.0,2.0,1.0,2.0,1.0,2.0,2.0,2.0,1.0,1.0,0.0,2.0,1.0,2.0,0.0,2.0,2.0,2.0,2.0,2.0,2.0,2.0,2.0,2.0,2.0,2.0,2.0,2.0,2.0,2.0
43939550,5.0,hanoi,23,21.07853,105.8177,REGULAR,Chill Studio close Ho Tay water park 2.2,entire_home,4,0.0,0.0,0.0,0,375388,2.0,2.0,1.0,1.0,1.0,2.0,1.0,1.0,1.0,1.0,2.0,2.0,1.0,2.0,2.0,0.0,2.0,2.0,2.0,0.0,2.0,2.0,2.0,2.0,2.0,2.0,2.0,2.0,2.0,2.0,2.0,2.0,2.0,2.0,2.0
916113594323304009,0.0,hanoi,11,21.0342015,105.8324867,REGULAR,Audray’s Homestay,private_room,0,0.0,1.0,0.0,0,431608,2.0,1.0,2.0,1.0,1.0,2.0,2.0,2.0,1.0,2.0,1.0,2.0,1.0,1.0,2.0,0.0,2.0,2.0,2.0,0.0,2.0,2.0,2.0,2.0,1.0,2.0,2.0,2.0,2.0,2.0,2.0,2.0,2.0,2.0,2.0
653898268956520356,4.67,hanoi,13,21.03034,105.84789,REGULAR,Căn hộ chim_5 phút đến Nhà thờ,private_room,3,0.0,1.0,5.0,0,416963,2.0,1.0,1.0,1.0,1.0,2.0,2.0,1.0,1.0,2.0,2.0,1.0,2.0,2.0,2.0,0.0,2.0,2.0,2.0,0.0,2.0,2.0,2.0,2.0,1.0,2.0,2.0,2.0,2.0,2.0,2.0,2.0,2.0,2.0,2.0
20396864,4.86,hanoi,23,21.05411,105.83667,REGULAR,Kim Hanoi Homestay 3,private_room,22,1.0,1.0,6.0,0,404659,2.0,2.0,1.0,1.0,1.0,1.0,2.0,2.0,1.0,2.0,2.0,2.0,1.0,2.0,2.0,0.0,2.0,2.0,0.0,0.0,2.0,2.0,2.0,2.0,1.0,2.0,2.0,2.0,2.0,2.0,2.0,2.0,2.0,2.0,2.0
876456490987383481,5.0,hanoi,15,21.03191,105.84431,REGULAR,Mia's Home in Old Quarter/City View/Lift,entire_home,5,0.0,0.0,0.0,0,479294,2.0,2.0,1.0,1.0,2.0,2.0,2.0,1.0,1.0,1.0,1.0,2.0,1.0,1.0,2.0,0.0,2.0,2.0,2.0,0.0,2.0,2.0,2.0,2.0,2.0,2.0,2.0,2.0,2.0,2.0,2.0,2.0,2.0,2.0,2.0
656259025007316261,0.0,hanoi,11,21.03452,105.85244,REGULAR,Khách sạn giá rẻ Hà Nội EcoStay 2 - Nhà trọ tập thể hỗn hợp 5,shared_room,0,0.0,0.0,0.0,0,138443,12.0,2.0,1.0,1.0,1.0,2.0,2.0,1.0,2.0,1.0,1.0,2.0,2.0,2.0,1.0,0.0,2.0,1.0,2.0,2.0,2.0,2.0,2.0,2.0,2.0,2.0,2.0,1.0,2.0,2.0,2.0,2.0,2.0,2.0,2.0
709053143486862597,4.45,hanoi,9,21.030949,105.850153,REGULAR,"!Lovelycondo center Old Quarter,Ho Guom,Cathedral!",private_room,47,0.0,0.0,0.0,0,482683,2.0,2.0,1.0,1.0,1.0,2.0,1.0,1.0,2.0,1.0,2.0,1.0,2.0,2.0,1.0,2.0,2.0,2.0,2.0,2.0,1.0,2.0,1.0,2.0,2.0,2.0,2.0,2.0,2.0,2.0,2.0,2.0,2.0,2.0,2.0
775603815354735363,4.67,hanoi,19,21.03744,105.82277,REGULAR,WindowSunny_StudioCENTER_BADINH,private_room,3,0.0,0.0,0.0,0,472788,2.0,2.0,1.0,1.0,2.0,2.0,2.0,1.0,1.0,1.0,2.0,2.0,1.0,1.0,1.0,2.0,2.0,2.0,2.0,2.0,2.0,2.0,2.0,2.0,2.0,2.0,2.0,2.0,2.0,2.0,2.0,2.0,2.0,2.0,1.0
30001502,4.77,hanoi,30,21.03617,105.85244,REGULAR,Trần 's Home- Thiết kế tối giản/Central Old Qtr,private_room,124,0.0,1.0,5.0,0,426667,2.0,1.0,2.0,1.0,1.0,2.0,2.0,1.0,1.0,1.0,2.0,2.0,2.0,1.0,2.0,0.0,2.0,2.0,2.0,0.0,1.0,2.0,2.0,2.0,2.0,2.0,2.0,2.0,2.0,2.0,2.0,2.0,2.0,2.0,2.0
41274968,5.0,hanoi,28,21.03297,105.81164,REGULAR,TV Netflix gần hồ đối diện đại sứ quán Aus Ba Đình,entire_home,6,0.0,0.0,0.0,0,479294,2.0,2.0,1.0,1.0,2.0,2.0,2.0,1.0,1.0,1.0,2.0,2.0,2.0,2.0,2.0,2.0,2.0,1.0,2.0,2.0,1.0,2.0,2.0,2.0,1.0,2.0,2.0,2.0,1.0,2.0,2.0,2.0,2.0,2.0,2.0
21716101,4.65,hanoi,15,21.05525,105.83541,REGULAR,Phòng studio King,entire_home,24,0.0,0.0,0.0,0,343953,2.0,2.0,1.0,1.0,2.0,2.0,2.0,1.0,1.0,1.0,2.0,2.0,1.0,2.0,1.0,0.0,2.0,1.0,2.0,2.0,2.0,2.0,2.0,2.0,1.0,2.0,2.0,2.0,2.0,2.0,2.0,2.0,2.0,2.0,2.0
919477742169382936,0.0,hanoi,15,21.0228892,105.800812,REGULAR,The mini apartment includes breakfast,entire_home,0,0.0,0.0,0.0,0,302160,2.0,2.0,1.0,1.0,2.0,2.0,2.0,2.0,2.0,1.0,2.0,2.0,2.0,1.0,2.0,0.0,2.0,1.0,2.0,0.0,2.0,2.0,2.0,2.0,2.0,2.0,2.0,2.0,2.0,2.0,2.0,2.0,1.0,2.0,1.0
868647269344030782,0.0,hanoi,21,21.054829605467347,105.82034401595592,REGULAR,House near West Lake,entire_home,0,0.0,0.0,0.0,0,513530,2.0,2.0,1.0,1.0,2.0,2.0,2.0,1.0,1.0,1.0,2.0,2.0,2.0,2.0,2.0,0.0,2.0,2.0,2.0,0.0,1.0,2.0,2.0,2.0,2.0,2.0,2.0,2.0,2.0,2.0,2.0,2.0,2.0,2.0,2.0
607831697449095689,0.0,hanoi,8,21.0222,105.84848,REGULAR,DC1* Centrer * Netflix miễn phí * Wi-Fi miễn phí * cửa sổ lớn,entire_home,0,0.0,0.0,0.0,0,441635,2.0,2.0,1.0,1.0,1.0,2.0,1.0,1.0,1.0,2.0,2.0,2.0,1.0,2.0,2.0,0.0,2.0,2.0,2.0,0.0,2.0,2.0,2.0,2.0,1.0,2.0,2.0,2.0,2.0,2.0,2.0,2.0,2.0,2.0,2.0
923581456490818991,0.0,hanoi,5,21.0315055,105.855027,REGULAR,"Cozyroom center Old Quater,Cathe",private_room,0,0.0,1.0,0.0,0,284769,2.0,1.0,2.0,1.0,1.0,2.0,1.0,2.0,1.0,1.0,2.0,2.0,1.0,2.0,2.0,2.0,2.0,2.0,2.0,2.0,2.0,2.0,2.0,2.0,2.0,2.0,1.0,2.0,2.0,2.0,2.0,2.0,2.0,2.0,2.0
36689438,4.77,hanoi,16,21.00504,105.86217,REGULAR,Ngôi nhà ấm cúng ở góc nhìn thoáng mát của cửa sổ. R#201,private_room,26,0.0,1.0,4.0,0,323718,2.0,1.0,1.0,1.0,1.0,2.0,2.0,2.0,1.0,1.0,2.0,2.0,2.0,2.0,2.0,0.0,2.0,1.0,2.0,0.0,2.0,2.0,1.0,2.0,2.0,2.0,2.0,2.0,2.0,2.0,2.0,2.0,2.0,2.0,2.0
20019831,4.91,hanoi,30,21.04287,105.79099,REGULAR,"Phòng có bếp, WC, Netflix gần phố khu ăn uống",entire_home,205,0.0,0.0,0.0,0,429569,3.0,2.0,1.0,1.0,1.0,2.0,1.0,1.0,1.0,1.0,1.0,2.0,1.0,2.0,1.0,2.0,2.0,2.0,2.0,2.0,2.0,2.0,2.0,2.0,2.0,2.0,2.0,2.0,2.0,2.0,2.0,2.0,2.0,2.0,2.0
777915517909403316,4.94,hanoi,17,21.0502,105.83947,REGULAR,Căn hộ đáng yêu với bồn tắm nước nóng,private_room,18,1.0,1.0,0.75,0,359652,2.0,1.0,1.0,1.0,1.0,1.0,2.0,1.0,2.0,2.0,2.0,2.0,1.0,2.0,2.0,0.0,2.0,2.0,2.0,0.0,1.0,2.0,2.0,2.0,2.0,2.0,2.0,2.0,2.0,2.0,2.0,2.0,2.0,2.0,2.0
918475341307088764,0.0,hanoi,12,21.0197568,105.8302567,REGULAR,V's home _The life of Hanoians 3,private_room,0,1.0,1.0,0.0,0,366884,2.0,1.0,1.0,1.0,1.0,2.0,2.0,2.0,1.0,1.0,1.0,2.0,2.0,2.0,2.0,0.0,2.0,2.0,2.0,0.0,2.0,2.0,2.0,2.0,2.0,2.0,2.0,2.0,2.0,2.0,2.0,2.0,2.0,2.0,2.0
681461296652410397,4.25,hanoi,10,21.04346,105.84274,REGULAR,"Faro 3, Nhà có 1 phòng ngủ tại Ba Đình",private_room,8,0.0,1.0,3.0,0,473425,4.0,1.0,1.0,1.0,2.0,2.0,2.0,1.0,2.0,1.0,1.0,2.0,2.0,2.0,2.0,0.0,1.0,1.0,2.0,0.0,2.0,2.0,2.0,2.0,2.0,2.0,2.0,2.0,2.0,2.0,2.0,2.0,2.0,2.0,2.0
32847325,4.9,hanoi,17,21.04571,105.84212,REGULAR,Linnie 's Abditory - Ở trung tâm Hà Nội,entire_home,106,0.0,0.0,0.0,0,419953,2.0,2.0,2.0,1.0,2.0,2.0,2.0,2.0,2.0,1.0,2.0,2.0,2.0,2.0,2.0,0.0,2.0,1.0,2.0,0.0,2.0,2.0,2.0,2.0,2.0,2.0,1.0,1.0,2.0,2.0,2.0,2.0,2.0,2.0,2.0
638097652302709346,4.86,hanoi,17,21.03096,105.8498,REGULAR,Căn hộ Le Dotie_ 50m đến hồ Hoàn Kiếm,private_room,7,0.0,1.0,5.0,0,357104,2.0,1.0,1.0,1.0,1.0,2.0,1.0,2.0,2.0,1.0,2.0,2.0,2.0,1.0,2.0,0.0,2.0,1.0,2.0,0.0,2.0,2.0,2.0,2.0,2.0,2.0,2.0,2.0,2.0,2.0,2.0,2.0,2.0,2.0,2.0
653884099355682103,4.75,hanoi,13,21.02942,105.84697,REGULAR,Căn hộ Panther_5 phút đến Nhà thờ,private_room,4,0.0,0.0,0.0,0,470520,2.0,2.0,1.0,1.0,1.0,1.0,2.0,1.0,2.0,1.0,2.0,2.0,2.0,2.0,2.0,0.0,1.0,2.0,2.0,0.0,2.0,2.0,1.0,2.0,2.0,2.0,2.0,2.0,2.0,2.0,2.0,2.0,2.0,2.0,2.0
907614103408958750,0.0,hanoi,10,21.0341383,105.8057554,REGULAR,Studio Fully furnished- VnaHomes,private_room,0,0.0,0.0,0.0,0,447200,2.0,2.0,1.0,1.0,2.0,2.0,2.0,1.0,1.0,1.0,1.0,2.0,2.0,2.0,2.0,0.0,2.0,2.0,2.0,2.0,2.0,2.0,2.0,2.0,2.0,2.0,2.0,2.0,2.0,2.0,2.0,2.0,2.0,2.0,2.0
933215371318699466,0.0,hanoi,9,21.033584835081374,105.80937147036131,REGULAR,"Studio Dao Tan, Ba Dinh",entire_home,0,0.0,0.0,0.0,0,470000,2.0,2.0,1.0,1.0,2.0,2.0,2.0,1.0,1.0,1.0,1.0,2.0,2.0,2.0,2.0,0.0,2.0,2.0,2.0,0.0,2.0,2.0,2.0,2.0,2.0,2.0,2.0,2.0,2.0,2.0,2.0,2.0,2.0,2.0,2.0
21037862,4.62,hanoi,16,21.01767,105.85393,REGULAR,Phòng ấm cúng đầy nắng ở trung tâm Hà Nội,private_room,26,0.0,1.0,6.0,0,323718,2.0,1.0,1.0,1.0,2.0,2.0,2.0,1.0,1.0,1.0,1.0,2.0,1.0,2.0,2.0,0.0,2.0,2.0,2.0,0.0,2.0,2.0,2.0,2.0,2.0,2.0,2.0,2.0,2.0,2.0,2.0,2.0,2.0,2.0,2.0
37502759,4.71,hanoi,21,21.05305,105.83726,REGULAR,V 's Home Westlake. Ngôi nhà ấm cúng gần Westlake 402,private_room,17,1.0,1.0,4.0,0,228235,1.0,1.0,1.0,1.0,2.0,2.0,2.0,2.0,1.0,1.0,2.0,2.0,1.0,2.0,1.0,0.0,2.0,2.0,2.0,0.0,1.0,2.0,2.0,2.0,2.0,2.0,2.0,2.0,2.0,2.0,2.0,2.0,2.0,2.0,2.0
791750120177725056,4.89,hanoi,16,21.03319,105.8517,REGULAR,Phòng Ruby - Thoải mái và thân thiện với môi trường - Gác mái Ngõ,private_room,9,0.0,0.0,0.0,0,337523,3.0,2.0,1.0,1.0,1.0,2.0,1.0,2.0,2.0,1.0,1.0,2.0,1.0,1.0,2.0,0.0,2.0,2.0,2.0,2.0,2.0,1.0,2.0,2.0,2.0,2.0,2.0,2.0,2.0,2.0,2.0,2.0,2.0,2.0,2.0
633052597728065291,4.13,hanoi,6,21.043295,105.842979,REGULAR,Sunny Room Hanoi - CityView - Rêver Home,private_room,8,0.0,0.0,0.0,0,339500,2.0,2.0,2.0,1.0,1.0,2.0,2.0,1.0,2.0,1.0,1.0,2.0,1.0,2.0,2.0,0.0,2.0,1.0,2.0,0.0,2.0,2.0,2.0,2.0,2.0,2.0,2.0,2.0,2.0,2.0,2.0,2.0,2.0,2.0,2.0
871465915772202765,0.0,hanoi,15,21.05257,105.83508,REGULAR,Balcony * West lake- KEM HOME,private_room,2,1.0,1.0,0.3333333333333333,0,487853,2.0,1.0,1.0,1.0,1.0,2.0,2.0,1.0,2.0,2.0,1.0,2.0,1.0,2.0,2.0,0.0,2.0,2.0,2.0,0.0,1.0,2.0,2.0,2.0,2.0,2.0,2.0,2.0,2.0,2.0,2.0,2.0,2.0,2.0,2.0
898356037936723117,4.8,hanoi,30,21.03142,105.8447,REGULAR,Hoan Kiem Lake - City Center - Best Price - 1R,private_room,5,1.0,1.0,1.0,0,319115,2.0,1.0,1.0,1.0,1.0,2.0,2.0,2.0,1.0,1.0,2.0,2.0,1.0,2.0,2.0,0.0,2.0,2.0,2.0,0.0,1.0,2.0,2.0,2.0,2.0,2.0,2.0,2.0,2.0,2.0,2.0,2.0,2.0,2.0,2.0
775006366335844531,0.0,hanoi,19,21.03778,105.82332,REGULAR,NatureLight_StudioCENTER_BADINH,private_room,2,1.0,1.0,4.0,0,472788,2.0,1.0,1.0,1.0,1.0,2.0,2.0,1.0,2.0,2.0,1.0,2.0,1.0,1.0,2.0,0.0,2.0,2.0,2.0,0.0,2.0,2.0,2.0,2.0,2.0,2.0,2.0,2.0,2.0,2.0,2.0,2.0,2.0,2.0,2.0
648381977328428715,4.94,hanoi,6,21.02491,105.85211,REGULAR,Căn 1 phòng ngủ đáng yêu gần trung tâm Hà Nội,private_room,16,1.0,1.0,1.0,0,465940,2.0,1.0,1.0,1.0,1.0,2.0,2.0,1.0,1.0,2.0,2.0,2.0,1.0,1.0,2.0,0.0,2.0,2.0,2.0,0.0,2.0,2.0,2.0,2.0,2.0,2.0,2.0,2.0,2.0,2.0,2.0,2.0,2.0,2.0,2.0
632296533719672996,0.0,hanoi,10,21.01829,105.84683,REGULAR,Căn hộ Avocado - 10 phút đến Phố cổ,private_room,0,0.0,1.0,0.0,0,447697,5.0,2.0,1.0,1.0,1.0,2.0,1.0,1.0,2.0,1.0,2.0,2.0,2.0,2.0,2.0,0.0,2.0,2.0,0.0,0.0,2.0,2.0,1.0,2.0,2.0,2.0,2.0,2.0,2.0,2.0,2.0,2.0,2.0,2.0,2.0
861328609172132787,0.0,hanoi,6,21.07074,105.80581,REGULAR,Home Sweet Home (Jenny 's House),private_room,0,0.0,1.0,0.0,0,319530,1.0,1.0,1.0,1.0,1.0,1.0,2.0,2.0,1.0,1.0,2.0,2.0,1.0,2.0,2.0,0.0,2.0,2.0,2.0,0.0,2.0,2.0,2.0,2.0,2.0,2.0,2.0,2.0,2.0,2.0,2.0,2.0,2.0,2.0,2.0
40045198,3.75,hanoi,9,21.04269,105.82145,REGULAR,"Private 1 BR, close to Westlake",private_room,4,0.0,1.0,4.0,0,317788,1.0,1.0,1.0,1.0,1.0,2.0,2.0,2.0,1.0,1.0,2.0,2.0,2.0,2.0,2.0,0.0,2.0,2.0,2.0,0.0,1.0,2.0,2.0,2.0,2.0,2.0,2.0,1.0,2.0,2.0,2.0,2.0,2.0,2.0,2.0
39404445,4.61,hanoi,19,21.03338,105.85096,REGULAR,Phố ✨Bia❗ ️ Phòng Riêng NHỎ ẤM cúng❗ ️,private_room,95,0.0,1.0,5.0,0,404659,2.0,1.0,2.0,1.0,2.0,2.0,2.0,1.0,2.0,1.0,2.0,2.0,1.0,2.0,1.0,2.0,2.0,1.0,2.0,2.0,1.0,2.0,2.0,2.0,2.0,1.0,2.0,2.0,2.0,1.0,2.0,2.0,2.0,2.0,2.0
29343797,4.65,hanoi,16,21.06185,105.82189,REGULAR,"R401 - Vị trí đẹp & yên tĩnh ở Đặng Thai Mai, Tây Hồ",entire_home,44,0.0,0.0,0.0,0,437883,2.0,2.0,1.0,1.0,1.0,2.0,1.0,1.0,2.0,2.0,2.0,2.0,1.0,1.0,2.0,2.0,2.0,2.0,2.0,2.0,1.0,1.0,2.0,1.0,2.0,2.0,2.0,2.0,2.0,2.0,2.0,2.0,2.0,2.0,2.0
882159542968460627,0.0,hanoi,7,21.03403,105.81862,REGULAR,"H&A Homestay / Large Bedroom, Quiet Place, Full",private_room,0,0.0,0.0,0.0,0,429311,2.0,2.0,1.0,1.0,1.0,2.0,2.0,2.0,1.0,1.0,2.0,2.0,1.0,2.0,2.0,0.0,2.0,1.0,2.0,0.0,2.0,2.0,2.0,2.0,2.0,2.0,1.0,2.0,2.0,2.0,2.0,2.0,2.0,2.0,2.0
28697951,5.0,hanoi,11,21.0552,105.8207,REGULAR,Nhà ở chung cư Xuân La,entire_home,6,0.0,0.0,0.0,0,464514,2.0,2.0,1.0,1.0,1.0,2.0,2.0,1.0,1.0,2.0,2.0,2.0,1.0,1.0,2.0,2.0,2.0,2.0,2.0,2.0,1.0,1.0,2.0,2.0,1.0,2.0,2.0,2.0,2.0,2.0,2.0,2.0,2.0,2.0,2.0
39023764,5.0,hanoi,29,21.00277,105.85973,REGULAR,The law house_double room,private_room,5,1.0,1.0,4.0,0,239647,1.0,2.0,1.0,1.0,1.0,2.0,2.0,1.0,1.0,1.0,2.0,2.0,1.0,2.0,2.0,0.0,2.0,2.0,0.0,0.0,2.0,2.0,2.0,2.0,2.0,2.0,2.0,2.0,2.0,2.0,2.0,2.0,2.0,2.0,2.0
39633737,4.76,hanoi,22,20.99568,105.8791,REGULAR,Kiwi Sweet Studio (Phòng 401),entire_home,17,0.0,0.0,0.0,0,335506,2.0,2.0,1.0,1.0,2.0,2.0,2.0,1.0,1.0,1.0,2.0,2.0,1.0,2.0,1.0,0.0,2.0,1.0,2.0,2.0,2.0,2.0,1.0,2.0,2.0,2.0,2.0,2.0,2.0,2.0,2.0,2.0,2.0,2.0,2.0
41022125,4.88,hanoi,20,21.0389,105.82903,REGULAR,"Nhà tôi có bốn phòng sạch sẽ, yên tĩnh. R2",entire_home,16,0.0,0.0,0.0,0,414330,3.0,2.0,1.0,1.0,1.0,2.0,2.0,1.0,2.0,2.0,1.0,2.0,1.0,1.0,2.0,0.0,2.0,2.0,2.0,0.0,1.0,2.0,2.0,2.0,2.0,2.0,2.0,2.0,2.0,2.0,2.0,2.0,2.0,2.0,2.0
35044198,4.8,hanoi,22,21.03537,105.82274,REGULAR,Quyet Homestay #6 (Mekong Delta Studio),private_room,20,1.0,1.0,6.0,0,377679,2.0,1.0,1.0,1.0,1.0,2.0,2.0,1.0,1.0,1.0,2.0,2.0,1.0,2.0,2.0,0.0,2.0,2.0,2.0,0.0,2.0,2.0,2.0,2.0,2.0,2.0,2.0,2.0,2.0,2.0,2.0,2.0,2.0,2.0,2.0
21548670,4.92,hanoi,30,21.03715,105.82878,REGULAR,Studio yên tĩnh ở trung tâm Ba Đình có lối ra hồ,entire_home,36,0.0,0.0,0.0,0,410041,2.0,2.0,1.0,1.0,1.0,2.0,2.0,1.0,2.0,2.0,1.0,2.0,1.0,1.0,2.0,0.0,2.0,2.0,2.0,0.0,1.0,2.0,2.0,2.0,2.0,2.0,2.0,2.0,2.0,2.0,2.0,2.0,2.0,2.0,2.0
713280798716468993,4.38,hanoi,10,21.030949,105.850153,REGULAR,"Condo with kitchen in Ho Guom, Ta Hien, Cathedral!",private_room,40,0.0,0.0,0.0,0,455491,2.0,2.0,1.0,1.0,1.0,2.0,1.0,2.0,2.0,1.0,2.0,1.0,2.0,2.0,1.0,2.0,2.0,2.0,2.0,2.0,1.0,2.0,1.0,1.0,2.0,2.0,2.0,2.0,2.0,2.0,2.0,2.0,2.0,2.0,2.0
798921040360329942,0.0,hanoi,13,21.0215896,105.8472167,REGULAR,HW-Harmony,private_room,2,0.0,1.0,4.0,0,359471,2.0,1.0,2.0,1.0,1.0,2.0,2.0,2.0,1.0,2.0,1.0,1.0,1.0,2.0,2.0,0.0,2.0,2.0,2.0,0.0,2.0,2.0,2.0,1.0,2.0,2.0,2.0,2.0,2.0,2.0,2.0,2.0,2.0,2.0,2.0
735341122690872643,4.29,hanoi,9,21.02915,105.8496,REGULAR,Legume Home - Phòng bốn ngươ ̀ i có vòi sen,entire_home,7,0.0,0.0,0.0,0,470400,4.0,2.0,2.0,1.0,1.0,2.0,2.0,1.0,2.0,1.0,2.0,2.0,1.0,2.0,2.0,0.0,2.0,1.0,2.0,0.0,2.0,2.0,2.0,2.0,2.0,2.0,2.0,2.0,2.0,2.0,2.0,2.0,2.0,2.0,2.0
25213197,4.93,hanoi,7,21.01662,105.81607,REGULAR,Phòng ngủ thoáng mát với ban công lớn,private_room,41,1.0,1.0,6.0,0,350714,2.0,1.0,2.0,1.0,2.0,2.0,2.0,2.0,1.0,1.0,2.0,2.0,1.0,2.0,2.0,0.0,2.0,2.0,2.0,0.0,2.0,2.0,1.0,2.0,1.0,2.0,2.0,2.0,1.0,2.0,2.0,2.0,2.0,2.0,2.0
31896934,4.94,hanoi,30,21.02541,105.82755,REGULAR,Ban công đáng yêu - Phòng riêng tại Trung tâm thành phố Hà Nội.,private_room,16,0.0,1.0,5.0,0,433647,2.0,1.0,1.0,1.0,1.0,2.0,2.0,2.0,2.0,2.0,2.0,1.0,1.0,2.0,2.0,0.0,2.0,2.0,2.0,0.0,2.0,1.0,2.0,1.0,2.0,2.0,2.0,2.0,2.0,2.0,2.0,2.0,2.0,2.0,2.0
849930497097506246,0.0,hanoi,10,21.030457707551935,105.77372403938774,REGULAR,"Căn hộ gần kengnam, Mỹ Đình 2, Nam Từ Liêm, Hà Nội",private_room,0,1.0,1.0,0.0,0,341142,2.0,1.0,1.0,1.0,1.0,2.0,2.0,2.0,1.0,1.0,2.0,2.0,1.0,2.0,1.0,0.0,2.0,2.0,2.0,0.0,2.0,2.0,2.0,2.0,2.0,2.0,2.0,2.0,2.0,2.0,2.0,2.0,2.0,2.0,2.0
670623513038643733,5.0,hanoi,13,21.02898,105.84788,REGULAR,Căn hộ Elle_1 phút đến Nhà thờ_5 phút đến hồ Hoàn Kiếm,private_room,6,0.0,1.0,5.0,0,483301,2.0,1.0,2.0,1.0,1.0,2.0,1.0,1.0,2.0,1.0,2.0,1.0,2.0,2.0,2.0,2.0,2.0,1.0,2.0,2.0,2.0,2.0,2.0,2.0,2.0,2.0,2.0,1.0,1.0,2.0,2.0,2.0,2.0,2.0,2.0
738126376174994928,4.52,hanoi,8,21.03375,105.8515,REGULAR,Aqua house 4* 50m đến hồ Guom * khu phố CỔ*netflix,private_room,46,0.0,0.0,0.0,0,467883,2.0,2.0,2.0,1.0,1.0,2.0,2.0,1.0,1.0,1.0,2.0,2.0,2.0,2.0,2.0,0.0,2.0,1.0,2.0,0.0,2.0,2.0,2.0,2.0,1.0,2.0,2.0,2.0,2.0,2.0,2.0,2.0,2.0,2.0,2.0
49039294,5.0,hanoi,15,21.04649,105.84005,REGULAR,Studio với hàng tấn ánh sáng tự nhiên,entire_home,5,0.0,0.0,0.0,0,456471,2.0,2.0,2.0,1.0,1.0,1.0,1.0,1.0,2.0,2.0,2.0,2.0,1.0,2.0,2.0,0.0,2.0,2.0,2.0,0.0,1.0,2.0,2.0,1.0,2.0,2.0,2.0,2.0,2.0,2.0,2.0,2.0,2.0,2.0,2.0
928060670923699791,0.0,hanoi,7,21.013468073307195,105.84741671163941,REGULAR,Căn hộ studio Hai Bà Trưng,private_room,0,0.0,0.0,0.0,0,431608,2.0,2.0,1.0,1.0,1.0,2.0,2.0,1.0,1.0,1.0,1.0,2.0,2.0,2.0,2.0,0.0,2.0,1.0,2.0,0.0,2.0,2.0,2.0,2.0,2.0,2.0,2.0,2.0,2.0,2.0,2.0,2.0,2.0,2.0,2.0
41021794,0.0,hanoi,12,21.03599,105.82683,REGULAR,"Nhà tôi có bốn phòng sạch sẽ, yên tĩnh. x2",private_room,1,1.0,1.0,4.0,0,330384,3.0,1.0,1.0,1.0,1.0,2.0,2.0,1.0,2.0,2.0,1.0,2.0,1.0,1.0,2.0,0.0,2.0,2.0,2.0,0.0,2.0,2.0,2.0,2.0,2.0,2.0,2.0,2.0,2.0,2.0,2.0,2.0,2.0,2.0,2.0
30619797,0.0,hanoi,10,21.04332,105.85017,REGULAR,Trở thành ngôi nhà thực sự của bạn 2,entire_home,0,0.0,0.0,0.0,0,342353,1.0,2.0,1.0,1.0,2.0,2.0,2.0,1.0,1.0,1.0,1.0,2.0,2.0,1.0,2.0,0.0,2.0,2.0,2.0,0.0,2.0,2.0,2.0,2.0,1.0,2.0,2.0,2.0,2.0,2.0,2.0,2.0,2.0,2.0,2.0
42150594,0.0,hanoi,11,21.01763,105.79122,REGULAR,Nhà Đẹp 3,private_room,0,0.0,1.0,0.0,0,272593,2.0,1.0,1.0,1.0,2.0,1.0,2.0,1.0,1.0,1.0,2.0,2.0,2.0,2.0,2.0,0.0,2.0,1.0,2.0,0.0,2.0,2.0,2.0,2.0,2.0,2.0,2.0,2.0,2.0,2.0,2.0,2.0,2.0,2.0,2.0
36889255,4.29,hanoi,16,20.98549,105.79713,REGULAR,MỚI CẢI TẠO - Phòng riêng gần HANU,private_room,7,0.0,1.0,4.0,0,311506,2.0,1.0,1.0,1.0,1.0,2.0,2.0,2.0,1.0,1.0,1.0,2.0,1.0,2.0,2.0,0.0,2.0,2.0,2.0,0.0,2.0,2.0,2.0,2.0,2.0,2.0,2.0,2.0,2.0,2.0,2.0,2.0,2.0,2.0,2.0
841118443176231243,0.0,hanoi,9,21.02234,105.84596,REGULAR,HW-Bird Cage,private_room,0,0.0,1.0,0.0,0,319530,2.0,1.0,2.0,1.0,2.0,1.0,2.0,2.0,1.0,1.0,2.0,2.0,1.0,2.0,1.0,0.0,2.0,2.0,2.0,0.0,2.0,2.0,1.0,2.0,2.0,2.0,2.0,2.0,2.0,2.0,2.0,2.0,2.0,2.0,2.0
903848228423667097,0.0,hanoi,7,21.03423,105.8169,REGULAR,"H&A Homestay / Large Balcony, Lotte View",private_room,0,0.0,1.0,0.0,0,411965,2.0,1.0,1.0,1.0,1.0,2.0,2.0,2.0,1.0,2.0,2.0,2.0,1.0,2.0,2.0,0.0,2.0,2.0,2.0,0.0,2.0,2.0,2.0,1.0,2.0,2.0,2.0,2.0,2.0,2.0,2.0,2.0,2.0,2.0,2.0
20395774,4.53,hanoi,16,21.0547,105.83759,REGULAR,Sống cùng gia đình bản xứ Kim Hà Nội 1,private_room,15,1.0,1.0,6.0,0,323718,2.0,2.0,1.0,1.0,1.0,1.0,2.0,1.0,1.0,2.0,2.0,2.0,1.0,2.0,2.0,0.0,2.0,2.0,0.0,0.0,2.0,2.0,2.0,2.0,2.0,2.0,2.0,2.0,2.0,2.0,2.0,2.0,2.0,2.0,2.0
934541059192419623,0.0,hanoi,5,21.0347181791742,105.80771849631313,REGULAR,Chloe Apartment,private_room,0,0.0,1.0,0.0,0,386930,2.0,1.0,1.0,1.0,2.0,2.0,1.0,2.0,1.0,1.0,1.0,2.0,1.0,2.0,1.0,2.0,2.0,2.0,2.0,2.0,2.0,2.0,2.0,2.0,1.0,2.0,2.0,2.0,2.0,2.0,2.0,2.0,2.0,2.0,2.0
876496221331960748,0.0,hanoi,16,21.060893167413937,105.82616920691528,REGULAR,Na Homestays Studio in Tây Hồ,private_room,0,0.0,0.0,0.0,0,492076,2.0,2.0,1.0,1.0,1.0,2.0,1.0,1.0,1.0,2.0,1.0,2.0,2.0,2.0,2.0,0.0,2.0,2.0,2.0,2.0,1.0,2.0,2.0,2.0,1.0,2.0,2.0,2.0,2.0,2.0,2.0,2.0,2.0,2.0,2.0
884293228442224703,0.0,hanoi,6,21.03229,105.80844,REGULAR,"Best price 1b fully fernished Phan Ke Binh,Ba Dinh",private_room,2,1.0,1.0,0.3333333333333333,0,639059,2.0,1.0,1.0,1.0,1.0,2.0,2.0,1.0,1.0,2.0,1.0,1.0,2.0,1.0,2.0,2.0,2.0,2.0,2.0,2.0,2.0,2.0,2.0,2.0,1.0,2.0,2.0,2.0,2.0,2.0,2.0,2.0,2.0,2.0,2.0
36889249,4.64,hanoi,14,20.9861,105.79704,REGULAR,CẢI TẠO MỚI - Phòng yên tĩnh gần Đại học Hà Nội,private_room,11,0.0,1.0,4.0,0,245774,1.0,1.0,1.0,1.0,1.0,2.0,2.0,2.0,1.0,1.0,1.0,2.0,1.0,2.0,2.0,0.0,2.0,2.0,2.0,0.0,2.0,2.0,2.0,2.0,2.0,2.0,2.0,2.0,2.0,2.0,2.0,2.0,2.0,2.0,2.0
19074012,4.54,hanoi,4,21.00089,105.85242,REGULAR,Một phòng riêng có tầm nhìn và nhiều ánh sáng,private_room,13,1.0,1.0,6.0,0,332371,2.0,2.0,1.0,1.0,2.0,2.0,2.0,1.0,1.0,1.0,2.0,2.0,2.0,2.0,2.0,0.0,2.0,2.0,0.0,0.0,2.0,2.0,2.0,2.0,2.0,2.0,2.0,2.0,2.0,2.0,2.0,2.0,2.0,2.0,2.0
47363762,0.0,hanoi,16,21.02759,105.84247,REGULAR,HBT Homestay | Căn hộ 2 tầng khép kín | Hoàn Kiếm,entire_home,0,0.0,0.0,0.0,0,450765,2.0,2.0,1.0,1.0,1.0,2.0,2.0,1.0,1.0,1.0,2.0,2.0,1.0,2.0,1.0,0.0,2.0,2.0,2.0,0.0,2.0,2.0,2.0,2.0,2.0,2.0,2.0,2.0,2.0,2.0,2.0,2.0,2.0,2.0,2.0
875630631270068528,0.0,hanoi,8,21.03247,105.84349,REGULAR,Compact vintage room @ Hoan Kiem,private_room,1,0.0,1.0,1.0,0,339412,2.0,1.0,2.0,1.0,1.0,2.0,1.0,2.0,1.0,2.0,1.0,2.0,1.0,2.0,2.0,0.0,2.0,2.0,2.0,0.0,2.0,2.0,2.0,1.0,2.0,2.0,2.0,2.0,2.0,2.0,2.0,2.0,2.0,2.0,2.0
759892962386277667,4.75,hanoi,26,21.0472492823398,105.80810911953449,REGULAR,Peaceful bedroom filled with natural light,private_room,4,0.0,1.0,5.0,0,439804,2.0,1.0,1.0,1.0,1.0,2.0,1.0,2.0,2.0,2.0,2.0,2.0,1.0,2.0,2.0,0.0,2.0,2.0,2.0,0.0,2.0,2.0,2.0,1.0,2.0,2.0,2.0,2.0,2.0,2.0,2.0,2.0,2.0,2.0,2.0
891528326246386997,0.0,hanoi,20,21.03993,105.84774,REGULAR,*Hanoi Loft* Spacious bedroom in Old Quarter!,private_room,2,1.0,1.0,5.0,0,406645,3.0,1.0,1.0,1.0,1.0,2.0,1.0,1.0,1.0,2.0,2.0,1.0,1.0,2.0,2.0,2.0,2.0,2.0,2.0,2.0,2.0,2.0,2.0,2.0,1.0,2.0,2.0,2.0,2.0,2.0,2.0,2.0,2.0,2.0,2.0
891642208055903880,0.0,hanoi,8,21.0291829,105.8499351,REGULAR,Le Gaucho @ 50m to Cathedral,private_room,1,0.0,1.0,5.0,0,480466,2.0,1.0,1.0,1.0,1.0,2.0,2.0,1.0,2.0,1.0,2.0,2.0,2.0,2.0,2.0,0.0,2.0,1.0,2.0,0.0,2.0,2.0,2.0,2.0,2.0,2.0,1.0,2.0,2.0,2.0,2.0,2.0,2.0,2.0,2.0
921664289836161252,0.0,hanoi,5,21.020135403876104,105.7763736581609,REGULAR,"Căn hộ riêng tư, 30m2, thoáng",entire_home,0,0.0,0.0,0.0,0,338832,2.0,2.0,1.0,1.0,2.0,2.0,2.0,1.0,2.0,1.0,1.0,2.0,2.0,2.0,2.0,0.0,2.0,2.0,2.0,2.0,2.0,2.0,2.0,2.0,2.0,2.0,2.0,2.0,2.0,2.0,2.0,2.0,2.0,2.0,2.0
13788880,4.96,hanoi,30,21.03773,105.82974,REGULAR,Studio được trang bị nội thất Ba Đình gần Hồ Tây & Lotte,entire_home,24,0.0,0.0,0.0,0,458605,2.0,2.0,1.0,1.0,1.0,2.0,1.0,1.0,2.0,2.0,1.0,2.0,1.0,2.0,2.0,0.0,2.0,2.0,2.0,0.0,1.0,2.0,2.0,2.0,2.0,2.0,2.0,2.0,2.0,2.0,2.0,2.0,2.0,2.0,2.0
934927210637062768,0.0,hanoi,11,20.957260452424737,105.77262297145907,REGULAR,Luxurious en-suite room Hadong,private_room,0,0.0,1.0,0.0,0,485600,2.0,1.0,2.0,1.0,1.0,2.0,2.0,1.0,2.0,1.0,1.0,2.0,1.0,1.0,2.0,0.0,2.0,2.0,2.0,2.0,2.0,2.0,2.0,2.0,1.0,2.0,2.0,2.0,2.0,2.0,2.0,2.0,2.0,2.0,2.0
932126848861122595,0.0,hanoi,11,21.06539859324497,105.83104930299066,REGULAR,Studio giá rẻ đầy đủ tiện nghi tại Hồ Tây,entire_home,0,0.0,0.0,0.0,0,458605,1.0,2.0,1.0,1.0,2.0,2.0,2.0,1.0,1.0,1.0,1.0,2.0,2.0,2.0,2.0,0.0,2.0,2.0,2.0,2.0,1.0,2.0,2.0,2.0,2.0,2.0,2.0,2.0,2.0,2.0,2.0,2.0,2.0,2.0,2.0
919412552832808055,0.0,hanoi,9,21.046368196824094,105.7993744477201,REGULAR,1 Cozy Bedroom Apartment near West Lake,entire_home,0,0.0,0.0,0.0,0,456471,2.0,2.0,1.0,1.0,1.0,1.0,1.0,1.0,2.0,2.0,1.0,2.0,1.0,2.0,2.0,0.0,2.0,2.0,2.0,0.0,2.0,2.0,2.0,2.0,2.0,2.0,2.0,2.0,2.0,2.0,2.0,2.0,2.0,2.0,2.0
23268004,4.8,hanoi,16,21.04653,105.84143,REGULAR,Ban công cửa sổ Toàn cảnh riêng Hồ Trúc Bạch,private_room,55,0.0,0.0,0.0,0,382235,3.0,2.0,1.0,1.0,1.0,2.0,2.0,2.0,2.0,1.0,2.0,2.0,1.0,2.0,1.0,0.0,2.0,1.0,2.0,2.0,1.0,2.0,1.0,2.0,2.0,2.0,2.0,2.0,2.0,2.0,2.0,2.0,2.0,2.0,2.0
36889243,4.86,hanoi,17,20.9875,105.79552,REGULAR,- CẢI TẠO MỚI Phòng Tư nhân gần trường Đại học Hà Nội.,private_room,7,0.0,1.0,4.0,0,260153,2.0,1.0,1.0,1.0,1.0,2.0,2.0,2.0,1.0,1.0,1.0,2.0,1.0,2.0,2.0,0.0,2.0,2.0,2.0,0.0,2.0,2.0,2.0,2.0,2.0,2.0,2.0,2.0,2.0,2.0,2.0,2.0,2.0,2.0,2.0
16417995,4.38,hanoi,14,21.01406,105.83941,REGULAR,Chỗ ở trong không khí trong lành cho thuê,private_room,39,0.0,1.0,7.0,0,264356,2.0,1.0,1.0,1.0,1.0,2.0,2.0,2.0,2.0,2.0,2.0,2.0,1.0,2.0,2.0,0.0,2.0,2.0,2.0,0.0,1.0,2.0,2.0,1.0,2.0,2.0,2.0,2.0,2.0,2.0,2.0,2.0,2.0,2.0,2.0
40364755,4.7,hanoi,30,21.03077,105.85264,REGULAR,#41 Minimalist Studio nearby Water Puppet Theatre,private_room,10,0.0,1.0,5.0,0,476334,2.0,1.0,1.0,1.0,2.0,2.0,2.0,1.0,2.0,1.0,2.0,2.0,2.0,2.0,2.0,0.0,2.0,1.0,2.0,0.0,2.0,2.0,2.0,2.0,2.0,2.0,2.0,2.0,2.0,2.0,2.0,2.0,2.0,2.0,2.0
893089055253770237,0.0,hanoi,10,21.029622935330696,105.8336904951065,REGULAR,Libré Homestay - City View,private_room,0,0.0,0.0,0.0,0,407200,2.0,2.0,1.0,1.0,2.0,2.0,2.0,1.0,1.0,1.0,1.0,2.0,2.0,1.0,1.0,0.0,2.0,2.0,2.0,2.0,2.0,2.0,2.0,2.0,1.0,2.0,2.0,2.0,2.0,2.0,2.0,2.0,2.0,2.0,2.0
713955733425948869,4.49,hanoi,10,21.030949,105.850153,REGULAR,"Lovelycondo in Ho Guom,Ta Hien,Cathedral,Mausoleum",private_room,39,0.0,0.0,0.0,0,414212,2.0,2.0,1.0,1.0,1.0,2.0,1.0,2.0,2.0,1.0,2.0,1.0,2.0,2.0,1.0,2.0,2.0,2.0,2.0,2.0,1.0,2.0,1.0,1.0,2.0,2.0,2.0,2.0,2.0,2.0,2.0,2.0,2.0,2.0,2.0
862581829744404354,0.0,hanoi,24,21.0375881,105.8538806,REGULAR,Phòng tiêu chuẩn riêng ở Quận Hoàn Kiếm.,private_room,0,0.0,0.0,0.0,0,371698,2.0,2.0,2.0,1.0,1.0,2.0,2.0,2.0,2.0,1.0,1.0,2.0,2.0,2.0,2.0,0.0,2.0,1.0,2.0,0.0,2.0,2.0,2.0,2.0,2.0,2.0,2.0,2.0,2.0,2.0,2.0,2.0,2.0,2.0,2.0
888128215489217175,0.0,hanoi,20,21.05285,105.8374432,REGULAR,"Sun Clover Home-indochine style,city view,westlake",private_room,0,0.0,0.0,0.0,0,455330,2.0,2.0,2.0,1.0,1.0,2.0,2.0,1.0,1.0,1.0,2.0,1.0,1.0,2.0,2.0,0.0,2.0,2.0,2.0,2.0,1.0,2.0,2.0,2.0,2.0,2.0,1.0,2.0,2.0,2.0,2.0,2.0,2.0,2.0,2.0
15592968,4.45,hanoi,22,21.01273,105.77634,REGULAR,Căn hộ cao cấp V-studio 3,entire_home,20,0.0,0.0,0.0,0,485600,2.0,2.0,1.0,1.0,2.0,1.0,2.0,1.0,1.0,1.0,2.0,2.0,1.0,1.0,2.0,0.0,2.0,2.0,2.0,2.0,2.0,2.0,2.0,2.0,1.0,2.0,2.0,2.0,2.0,2.0,2.0,2.0,2.0,2.0,2.0
931539170484898547,0.0,hanoi,6,21.033613087830027,105.82775951248396,REGULAR,Zozo 303,private_room,0,0.0,0.0,0.0,0,228235,2.0,2.0,2.0,1.0,2.0,2.0,2.0,2.0,1.0,1.0,1.0,2.0,2.0,2.0,2.0,0.0,2.0,2.0,2.0,0.0,2.0,2.0,2.0,2.0,2.0,2.0,2.0,2.0,2.0,2.0,2.0,2.0,2.0,2.0,2.0
882132395764014937,0.0,hanoi,6,21.03009,105.84665,REGULAR,Heart of Hoan Kiem super aesthetic,private_room,2,0.0,1.0,1.0,0,343106,2.0,1.0,1.0,1.0,1.0,2.0,1.0,2.0,2.0,2.0,1.0,2.0,1.0,2.0,2.0,0.0,2.0,2.0,2.0,0.0,2.0,2.0,2.0,1.0,2.0,2.0,2.0,2.0,2.0,2.0,2.0,2.0,2.0,2.0,2.0
716319700231241810,4.5,hanoi,30,21.03497,105.85067,REGULAR,Studio tại phố Tạ Hiện - Hoàn Kiếm 01,private_room,4,0.0,1.0,5.0,0,407883,2.0,1.0,2.0,1.0,1.0,2.0,1.0,2.0,2.0,1.0,1.0,2.0,2.0,2.0,1.0,0.0,2.0,1.0,2.0,0.0,2.0,2.0,2.0,2.0,2.0,2.0,2.0,2.0,2.0,2.0,2.0,2.0,2.0,2.0,2.0
650844189111285267,4.5,hanoi,30,21.02968,105.84758,REGULAR,Vitamin Home ~ Summer room in HoanKiem,private_room,32,0.0,1.0,6.0,0,490934,2.0,1.0,1.0,1.0,1.0,2.0,2.0,1.0,1.0,1.0,2.0,2.0,1.0,2.0,2.0,0.0,2.0,2.0,2.0,0.0,2.0,2.0,2.0,2.0,2.0,2.0,2.0,2.0,2.0,2.0,2.0,2.0,2.0,2.0,2.0
756909668901711226,0.0,hanoi,12,21.0112956,105.8168956,REGULAR,Phòng đơn khép kín cửa sổ thoáng mát + thang máy,private_room,1,0.0,1.0,0.6666666666666666,0,272759,2.0,1.0,1.0,1.0,1.0,2.0,1.0,1.0,1.0,1.0,2.0,2.0,1.0,2.0,2.0,0.0,2.0,2.0,2.0,2.0,2.0,2.0,2.0,2.0,2.0,2.0,2.0,2.0,2.0,2.0,2.0,2.0,2.0,2.0,2.0
925043395149198906,0.0,hanoi,5,21.053720527305707,105.83321176604113,REGULAR,Studio xin xắn gần hồ Tây,private_room,0,0.0,1.0,0.0,0,291339,2.0,1.0,1.0,1.0,1.0,2.0,2.0,1.0,1.0,1.0,1.0,2.0,2.0,2.0,2.0,0.0,2.0,2.0,2.0,2.0,2.0,2.0,2.0,2.0,2.0,2.0,2.0,2.0,2.0,2.0,2.0,2.0,2.0,2.0,2.0
853466964205653778,0.0,hanoi,7,21.0225578,105.8481919,REGULAR,THD04 studio ấm áp xinh xắn Hoàn Kiếm,entire_home,0,0.0,0.0,0.0,0,438713,2.0,2.0,1.0,1.0,1.0,2.0,2.0,1.0,2.0,1.0,2.0,2.0,2.0,2.0,2.0,0.0,2.0,1.0,2.0,0.0,2.0,1.0,1.0,2.0,2.0,2.0,2.0,2.0,2.0,2.0,2.0,2.0,2.0,2.0,2.0
22595901,4.94,hanoi,18,21.04475,105.79248,REGULAR,Sống cùng gia đình bản xứ độc thân ở Nghĩa Tân,private_room,17,1.0,1.0,6.0,0,333307,1.0,1.0,1.0,1.0,1.0,2.0,2.0,2.0,1.0,2.0,2.0,2.0,1.0,2.0,2.0,0.0,2.0,2.0,2.0,0.0,1.0,2.0,2.0,2.0,1.0,2.0,2.0,2.0,2.0,2.0,2.0,2.0,2.0,2.0,2.0
