room_id,rating,city,contextualPicturesCount,lat,long,listingObjType,name,roomTypeCategory,reviewCount,canInstantBook,price,maxGuestCapacity,SYSTEM_BEACH,SYSTEM_COOKING_BASICS,SYSTEM_WI_FI,SYSTEM_WORKSPACE,SYSTEM_POOL,SYSTEM_TV,SYSTEM_ELEVATOR,SYSTEM_WASHER,SYSTEM_SNOWFLAKE,SYSTEM_PATIO_BALCONY,isSuperHost,isVerified,yearHosting,SYSTEM_LOCK_ON_DOOR,SYSTEM_VIEW_OCEAN,SYSTEM_PETS,SYSTEM_REFRIGERATOR,SYSTEM_BREAKFAST,SYSTEM_NO_DETECTOR_CO2,SYSTEM_NO_DETECTOR_SMOKE,SYSTEM_MAPS_CAR_RENTAL,SYSTEM_FLOWER,SYSTEM_DRYER,SYSTEM_SURVEILLANCE,SYSTEM_VIEW_CITY,SYSTEM_VIEW_MOUNTAIN,SYSTEM_FIREPIT,SYSTEM_HAIRDRYER,SYSTEM_NO_LOCK_ON_DOOR,SYSTEM_BOAT_SAIL,SYSTEM_LUGGAGE_DROP,SYSTEM_SMOKING_ALLOWED,SYSTEM_JACUZZI,SYSTEM_EV_CHARGER,SYSTEM_FIREPLACE,SYSTEM_MAPS_RESORT,SYSTEM_TOYS,SYSTEM_SKI,SYSTEM_CALENDAR
43155066,4.85,quangninh,30,20.95965,107.00871,REGULAR,Cozy studio apt*seaview*high floor*GreenBay Garden,entire_home,53,0,523765,3,1.0,1.0,1.0,1.0,1.0,1.0,1.0,1.0,1.0,1.0,0.0,0.0,0.0,2.0,2.0,2.0,2.0,2.0,2.0,2.0,2.0,2.0,2.0,2.0,2.0,2.0,2.0,2.0,2.0,2.0,2.0,2.0,2.0,2.0,2.0,2.0,2.0,2.0,2.0
33232324,4.86,quangninh,30,20.7566,107.05676,REGULAR,"1. InnerX-Stay, Ha Long Floating Homestay",private_room,213,0,566494,2,1.0,2.0,2.0,2.0,2.0,2.0,2.0,2.0,2.0,1.0,1.0,1.0,5.0,1.0,1.0,1.0,1.0,1.0,0.0,0.0,2.0,2.0,2.0,2.0,2.0,2.0,2.0,2.0,2.0,2.0,2.0,2.0,2.0,2.0,2.0,2.0,2.0,2.0,2.0
880974780222731226,5.0,quangninh,20,20.97171,107.01654,REGULAR,Căn hộ 2308 Toà A greenbay garden,entire_home,7,0,480988,2,1.0,1.0,1.0,1.0,1.0,1.0,2.0,2.0,2.0,2.0,0.0,0.0,0.0,2.0,1.0,1.0,2.0,2.0,0.0,2.0,1.0,2.0,2.0,2.0,2.0,2.0,2.0,2.0,2.0,2.0,2.0,2.0,2.0,2.0,2.0,2.0,2.0,2.0,2.0
52144321,4.79,quangninh,18,20.96044,107.00753,REGULAR,Căn hộ 1BR với ban công và tầm nhìn ra biển - Greenbay Garden,entire_home,33,0,570589,3,2.0,1.0,1.0,1.0,1.0,1.0,1.0,1.0,1.0,1.0,0.0,0.0,0.0,2.0,2.0,2.0,2.0,2.0,2.0,2.0,2.0,1.0,2.0,2.0,2.0,2.0,2.0,2.0,2.0,2.0,2.0,2.0,2.0,2.0,2.0,2.0,2.0,2.0,2.0
43705873,4.75,quangninh,13,20.86158,106.66401,REPRESENTATIVE,Merci Apartment & Homestay No.4 - Vinhomes Imperia,entire_home,32,0,480000,2,2.0,1.0,1.0,2.0,2.0,1.0,2.0,1.0,1.0,2.0,0.0,0.0,0.0,2.0,2.0,2.0,2.0,2.0,0.0,0.0,1.0,2.0,1.0,1.0,2.0,2.0,2.0,2.0,2.0,2.0,2.0,2.0,2.0,2.0,2.0,2.0,2.0,2.0,2.0
604970307762418068,4.9,quangninh,26,20.95703,107.00763,REGULAR,Tùng Minh Homestay Hạ Long,entire_home,10,0,551569,2,1.0,1.0,1.0,2.0,1.0,1.0,1.0,2.0,2.0,2.0,0.0,0.0,0.0,2.0,1.0,2.0,2.0,2.0,0.0,2.0,1.0,2.0,2.0,2.0,1.0,2.0,2.0,2.0,2.0,2.0,2.0,2.0,2.0,2.0,2.0,2.0,2.0,2.0,2.0
45429572,4.86,quangninh,20,20.95887,107.00803,REGULAR,Căn hộ chung cư 2 phòng ngủ tại TP. Hạ Long,entire_home,7,0,412744,5,2.0,1.0,1.0,1.0,1.0,1.0,2.0,2.0,2.0,2.0,0.0,0.0,0.0,2.0,1.0,2.0,2.0,2.0,0.0,2.0,1.0,2.0,2.0,2.0,1.0,2.0,2.0,2.0,2.0,2.0,2.0,2.0,2.0,2.0,2.0,2.0,2.0,2.0,2.0
46072301,4.88,quangninh,25,20.95364,107.02416,REGULAR,Phòng ngủ Queen★ thoải mái phong cách Đông Dương★ Trung tâm HL,private_room,16,0,429575,2,2.0,1.0,1.0,1.0,2.0,1.0,2.0,1.0,1.0,2.0,0.0,0.0,0.0,2.0,2.0,2.0,2.0,2.0,0.0,0.0,1.0,2.0,2.0,2.0,1.0,2.0,2.0,2.0,2.0,2.0,2.0,2.0,2.0,2.0,2.0,2.0,2.0,2.0,2.0
715898880706275016,4.67,quangninh,9,20.724482,107.053356,REGULAR,Coffee Scent deluxe với bữa sáng,private_room,12,0,513530,2,2.0,2.0,1.0,1.0,2.0,1.0,2.0,2.0,1.0,1.0,0.0,0.0,0.0,2.0,2.0,2.0,2.0,2.0,0.0,2.0,1.0,2.0,2.0,2.0,2.0,1.0,1.0,2.0,2.0,2.0,2.0,2.0,2.0,2.0,2.0,2.0,2.0,2.0,2.0
45765088,4.76,quangninh,23,20.95559,107.02394,REGULAR,♥ Phòng ngủ đẹp ♥ Đi bộ mọi nơi! ♥,private_room,34,0,461961,3,2.0,1.0,1.0,2.0,2.0,1.0,2.0,1.0,1.0,2.0,0.0,0.0,0.0,2.0,2.0,2.0,2.0,2.0,0.0,0.0,1.0,2.0,2.0,2.0,1.0,2.0,2.0,1.0,2.0,2.0,2.0,2.0,2.0,2.0,2.0,2.0,2.0,2.0,2.0
35621777,5.0,quangninh,18,20.95425,107.08581,REGULAR,Hidden Space Halong - Don't Be S,private_room,9,0,513530,4,2.0,1.0,1.0,2.0,2.0,2.0,2.0,1.0,1.0,2.0,0.0,1.0,5.0,2.0,2.0,1.0,2.0,2.0,0.0,0.0,1.0,2.0,2.0,2.0,2.0,2.0,2.0,1.0,0.0,2.0,2.0,2.0,2.0,2.0,2.0,2.0,2.0,2.0,2.0
867681223105404001,4.44,quangninh,22,20.95043509765661,107.07888074219227,REGULAR,T5 Vị trí trung tâm đủ tiện ích,private_room,9,0,523800,3,2.0,1.0,1.0,2.0,2.0,2.0,2.0,1.0,1.0,1.0,0.0,0.0,0.0,2.0,2.0,2.0,2.0,2.0,0.0,0.0,2.0,2.0,2.0,1.0,2.0,1.0,2.0,1.0,2.0,2.0,2.0,2.0,2.0,2.0,2.0,2.0,2.0,2.0,2.0
837586033217055945,5.0,quangninh,30,20.961814059557856,107.00526885688305,REGULAR,Khách sạn căn hộ Hạ Long,entire_home,3,0,513530,3,1.0,1.0,1.0,2.0,1.0,1.0,1.0,2.0,2.0,2.0,0.0,0.0,0.0,2.0,2.0,2.0,2.0,2.0,2.0,2.0,1.0,2.0,2.0,1.0,1.0,2.0,2.0,2.0,2.0,1.0,2.0,2.0,2.0,2.0,2.0,2.0,2.0,2.0,2.0
20841767,4.67,quangninh,29,20.8363,106.72185,REGULAR,Nhà của Kiara - Phòng ấm cúng tại Biệt thự Morrocan,private_room,63,0,513530,2,2.0,1.0,1.0,2.0,2.0,1.0,2.0,1.0,2.0,2.0,0.0,1.0,6.0,1.0,2.0,1.0,2.0,2.0,0.0,0.0,1.0,2.0,2.0,1.0,2.0,2.0,2.0,2.0,2.0,2.0,2.0,2.0,2.0,2.0,2.0,2.0,2.0,2.0,2.0
778596661592490449,0.0,quangninh,11,20.95967,107.00959,REGULAR,Căn hộ view biển tại thành phố Hạ Long,entire_home,0,0,511079,4,1.0,1.0,1.0,2.0,1.0,1.0,1.0,1.0,2.0,2.0,0.0,0.0,0.0,2.0,1.0,1.0,2.0,2.0,2.0,2.0,1.0,2.0,2.0,2.0,2.0,2.0,2.0,2.0,2.0,2.0,2.0,2.0,2.0,2.0,2.0,2.0,2.0,2.0,2.0
623424256387180031,4.92,quangninh,19,20.769485473632812,107.02233123779297,REGULAR,Cat ba park homestay - single room 1,private_room,24,0,570589,2,2.0,1.0,1.0,1.0,2.0,2.0,2.0,2.0,2.0,2.0,0.0,0.0,0.0,2.0,1.0,2.0,2.0,2.0,0.0,0.0,1.0,1.0,2.0,1.0,2.0,2.0,2.0,2.0,2.0,2.0,2.0,2.0,2.0,2.0,2.0,2.0,2.0,2.0,2.0
40660412,5.0,quangninh,2,20.95502,107.04853,REGULAR,"Ký túc xá BBQ Hạ Long - phòng 402- 502, bao gồm ăn sáng",private_room,4,0,516816,2,2.0,2.0,1.0,2.0,2.0,1.0,1.0,2.0,1.0,1.0,0.0,0.0,0.0,2.0,2.0,2.0,1.0,2.0,2.0,2.0,1.0,1.0,2.0,2.0,2.0,2.0,2.0,1.0,2.0,2.0,2.0,2.0,2.0,2.0,2.0,2.0,2.0,2.0,2.0
877808670926560599,5.0,quangninh,16,20.952521350253903,107.08045000883845,REGULAR,Orion Hotel Halong,private_room,3,0,544368,16,2.0,2.0,1.0,1.0,2.0,1.0,1.0,2.0,1.0,1.0,0.0,0.0,0.0,2.0,2.0,1.0,2.0,2.0,2.0,2.0,1.0,2.0,2.0,1.0,2.0,2.0,2.0,2.0,2.0,2.0,1.0,2.0,2.0,2.0,2.0,2.0,2.0,2.0,2.0
28728634,4.84,quangninh,30,20.76872,107.06477,REGULAR,10. InnerX-Stay. Ha Long Floating Homestay,private_room,258,0,566494,2,2.0,2.0,2.0,2.0,2.0,2.0,2.0,2.0,2.0,2.0,1.0,1.0,5.0,2.0,2.0,1.0,2.0,1.0,0.0,0.0,2.0,2.0,2.0,2.0,2.0,2.0,2.0,2.0,0.0,2.0,2.0,1.0,2.0,2.0,2.0,2.0,2.0,2.0,2.0
931192630709019217,0.0,quangninh,8,20.8528295,106.6853692,REGULAR,Căn hộ cho thuê,private_room,0,0,429083,3,2.0,1.0,1.0,2.0,2.0,1.0,2.0,1.0,1.0,2.0,0.0,0.0,0.0,2.0,2.0,2.0,2.0,2.0,2.0,2.0,1.0,2.0,2.0,1.0,2.0,2.0,2.0,2.0,2.0,2.0,2.0,2.0,2.0,2.0,2.0,2.0,2.0,2.0,2.0
878696428197632765,5.0,quangninh,11,20.863931028858385,106.65939196944238,REGULAR,Cosy private room on high floor,private_room,5,0,570589,2,2.0,2.0,1.0,2.0,2.0,1.0,1.0,2.0,1.0,1.0,1.0,1.0,0.6666666666666666,1.0,1.0,2.0,2.0,2.0,0.0,2.0,1.0,2.0,2.0,2.0,1.0,2.0,2.0,2.0,2.0,2.0,2.0,2.0,2.0,2.0,2.0,2.0,2.0,2.0,2.0
923825086037536501,0.0,quangninh,23,20.819439672664835,106.68544977585755,REGULAR,Space Apartment & Homestay,private_room,0,0,431608,2,2.0,1.0,1.0,2.0,1.0,1.0,2.0,1.0,1.0,2.0,0.0,0.0,0.0,2.0,1.0,2.0,2.0,2.0,0.0,2.0,1.0,2.0,2.0,1.0,2.0,2.0,2.0,2.0,2.0,2.0,2.0,2.0,2.0,2.0,2.0,2.0,2.0,2.0,2.0
724560014305715861,4.14,quangninh,10,20.854977261962162,106.666876680426,REPRESENTATIVE,Merci Apartment & Homestay số 14 - HH Riverside,private_room,7,0,500000,2,2.0,1.0,1.0,1.0,2.0,1.0,2.0,1.0,1.0,2.0,0.0,0.0,0.0,2.0,2.0,2.0,2.0,2.0,2.0,2.0,1.0,2.0,2.0,1.0,2.0,2.0,2.0,2.0,2.0,2.0,2.0,2.0,2.0,2.0,2.0,2.0,2.0,2.0,2.0
848854249293420513,0.0,quangninh,6,20.86547,106.66331,REGULAR,"Vinhomes Imperia, căn hộ 1 ngủ xinh, Full nội thất",private_room,0,0,570589,2,2.0,1.0,1.0,2.0,2.0,1.0,2.0,1.0,1.0,2.0,0.0,0.0,0.0,2.0,2.0,2.0,2.0,2.0,0.0,0.0,1.0,2.0,2.0,1.0,2.0,2.0,2.0,2.0,2.0,2.0,2.0,2.0,1.0,2.0,2.0,2.0,2.0,2.0,2.0
856199359620528461,0.0,quangninh,17,20.9503804,107.0788939,REGULAR,T4 Vị trí trung tâm đủ tiện ích,private_room,0,0,485925,3,1.0,1.0,1.0,2.0,2.0,2.0,2.0,1.0,1.0,2.0,0.0,0.0,0.0,2.0,2.0,2.0,2.0,2.0,0.0,0.0,1.0,2.0,2.0,1.0,2.0,1.0,2.0,2.0,2.0,2.0,2.0,2.0,2.0,2.0,2.0,2.0,2.0,2.0,2.0
766440286419266287,5.0,quangninh,30,20.8599097,106.6726417,REGULAR,Lều Vịt Đất 2,private_room,5,0,566676,2,2.0,1.0,1.0,1.0,2.0,2.0,2.0,2.0,2.0,2.0,1.0,1.0,0.5833333333333334,1.0,2.0,2.0,2.0,2.0,0.0,0.0,1.0,2.0,2.0,1.0,1.0,2.0,2.0,2.0,2.0,2.0,2.0,2.0,2.0,1.0,2.0,2.0,2.0,2.0,2.0
765029656354541094,0.0,quangninh,9,20.86509,106.66785,REGULAR,"Vinhomes Imperia, META HOME Apartment&Homestay",private_room,0,0,543629,2,2.0,1.0,1.0,2.0,1.0,1.0,2.0,2.0,2.0,2.0,0.0,0.0,0.0,2.0,1.0,2.0,2.0,2.0,0.0,0.0,1.0,2.0,2.0,1.0,2.0,2.0,2.0,2.0,2.0,2.0,2.0,2.0,1.0,2.0,2.0,2.0,2.0,2.0,2.0
932518823731839810,0.0,quangninh,30,20.865758100163465,106.60642084041305,REGULAR,Sakura Eco farm in the HaiPhong city center #1,entire_home,0,0,521297,4,2.0,2.0,1.0,2.0,2.0,2.0,2.0,1.0,1.0,2.0,0.0,0.0,0.0,2.0,1.0,2.0,2.0,2.0,0.0,0.0,1.0,2.0,2.0,1.0,2.0,2.0,2.0,1.0,2.0,2.0,1.0,2.0,2.0,2.0,2.0,2.0,2.0,2.0,2.0
43681654,4.83,quangninh,10,20.863,106.66211,REPRESENTATIVE,Merci Apartment & Homestay No.1 - Vinhomes Imperia,entire_home,12,0,485000,2,2.0,1.0,1.0,2.0,2.0,1.0,2.0,1.0,1.0,2.0,0.0,0.0,0.0,2.0,2.0,2.0,2.0,2.0,0.0,0.0,1.0,2.0,1.0,1.0,2.0,2.0,2.0,2.0,2.0,2.0,2.0,2.0,2.0,2.0,2.0,2.0,2.0,2.0,2.0
883993706319587559,0.0,quangninh,11,20.864841376530848,106.66551714504047,REGULAR,An's House Apartment #301 - Vinhomes Imperia,entire_home,0,0,641076,2,2.0,1.0,1.0,1.0,2.0,1.0,2.0,1.0,1.0,2.0,0.0,0.0,0.0,2.0,2.0,1.0,2.0,2.0,0.0,2.0,1.0,2.0,2.0,2.0,2.0,2.0,2.0,1.0,2.0,2.0,2.0,2.0,2.0,2.0,2.0,2.0,2.0,2.0,2.0
35621905,4.75,quangninh,24,20.95448,107.08541,REGULAR,Không Gian Ẩn Hạ Long - Friendzone,private_room,4,0,513530,4,2.0,1.0,1.0,1.0,2.0,2.0,2.0,2.0,2.0,2.0,0.0,1.0,5.0,1.0,2.0,1.0,2.0,2.0,0.0,0.0,1.0,1.0,2.0,2.0,2.0,1.0,2.0,2.0,2.0,2.0,2.0,2.0,2.0,2.0,2.0,2.0,2.0,2.0,2.0
912614977711016871,0.0,quangninh,5,20.86507,106.6624,REGULAR,Căn hộ Áp mái nhỏ nhắn xinh xắn Vinhomes Imperia,entire_home,0,0,542059,2,2.0,1.0,1.0,1.0,2.0,1.0,1.0,2.0,2.0,2.0,0.0,0.0,0.0,2.0,2.0,2.0,2.0,2.0,0.0,0.0,1.0,2.0,2.0,1.0,2.0,2.0,2.0,2.0,2.0,2.0,2.0,2.0,1.0,2.0,2.0,2.0,2.0,2.0,2.0
40311847,4.38,quangninh,20,20.8391,106.71434,REGULAR,Căn hộ cao cấp - HK Apartment & Hotel,private_room,8,0,550000,2,2.0,1.0,1.0,2.0,2.0,1.0,1.0,1.0,1.0,2.0,0.0,0.0,0.0,2.0,2.0,1.0,2.0,2.0,0.0,2.0,1.0,2.0,2.0,2.0,2.0,2.0,2.0,2.0,2.0,2.0,2.0,2.0,1.0,2.0,2.0,2.0,2.0,2.0,2.0
831614693817476525,0.0,quangninh,30,20.9581169,107.0509214,REGULAR,La Casa Homestay Hạ Long,private_room,0,0,456471,8,1.0,2.0,2.0,2.0,2.0,2.0,2.0,2.0,2.0,1.0,0.0,0.0,0.0,2.0,2.0,2.0,1.0,2.0,0.0,0.0,2.0,2.0,1.0,1.0,2.0,2.0,2.0,2.0,2.0,2.0,2.0,2.0,2.0,2.0,2.0,2.0,2.0,2.0,2.0
872417197360674721,0.0,quangninh,10,20.856090107117854,106.68419402092695,REGULAR,Sunflower Homestay (Phòng ngủ phong cách Hàn Quốc),private_room,1,0,520000,2,2.0,1.0,1.0,1.0,2.0,1.0,2.0,1.0,1.0,2.0,1.0,1.0,0.25,1.0,2.0,2.0,2.0,2.0,0.0,0.0,2.0,2.0,1.0,2.0,2.0,2.0,2.0,2.0,2.0,2.0,2.0,2.0,2.0,2.0,2.0,2.0,2.0,2.0,2.0
40733077,4.9,quangninh,30,20.86928,106.66544,REGULAR,Studio Khánh Phong Ven 2112 Vinhome Imperia,private_room,10,0,523412,2,2.0,1.0,1.0,2.0,1.0,1.0,2.0,1.0,1.0,2.0,0.0,0.0,0.0,2.0,2.0,1.0,2.0,2.0,2.0,2.0,1.0,2.0,1.0,2.0,2.0,2.0,2.0,2.0,2.0,2.0,1.0,2.0,2.0,2.0,2.0,2.0,2.0,2.0,2.0
21520375,5.0,quangninh,30,20.83485,106.6955,REGULAR,Trung tâm Lặng lẽ Sạch sẽ Thân thiện Haiphong Homestay,private_room,10,0,427941,9,2.0,1.0,1.0,1.0,2.0,1.0,2.0,2.0,2.0,2.0,0.0,1.0,6.0,2.0,1.0,2.0,2.0,2.0,2.0,2.0,1.0,2.0,2.0,1.0,1.0,2.0,2.0,2.0,0.0,2.0,2.0,2.0,1.0,2.0,2.0,2.0,2.0,2.0,2.0
40064777,4.88,quangninh,30,20.76792,107.06421,REGULAR,"6.InnerX-Stay, Ha Long Floating Homestay",private_room,107,0,566494,2,2.0,2.0,2.0,2.0,2.0,2.0,2.0,2.0,2.0,2.0,0.0,0.0,0.0,2.0,2.0,2.0,2.0,1.0,0.0,0.0,2.0,2.0,2.0,2.0,2.0,2.0,2.0,2.0,2.0,2.0,2.0,1.0,2.0,2.0,2.0,2.0,2.0,2.0,2.0
34285697,4.87,quangninh,30,20.76817,107.06563,REGULAR,"3.InnerX-Stay, Ha Long Floating Homestay",private_room,164,0,577321,2,2.0,2.0,2.0,2.0,2.0,2.0,2.0,2.0,2.0,2.0,0.0,0.0,0.0,2.0,1.0,1.0,2.0,1.0,0.0,0.0,2.0,2.0,2.0,2.0,2.0,2.0,2.0,2.0,2.0,2.0,2.0,1.0,2.0,2.0,2.0,2.0,2.0,2.0,2.0
913419758990963352,0.0,quangninh,11,20.863152006589672,106.66602627805871,REGULAR,An's House Apartment #201 - Vinhomes Imperia,entire_home,0,0,642084,2,2.0,1.0,1.0,1.0,2.0,1.0,2.0,1.0,1.0,2.0,0.0,0.0,0.0,2.0,2.0,1.0,2.0,2.0,0.0,2.0,1.0,2.0,2.0,2.0,2.0,2.0,2.0,2.0,2.0,2.0,2.0,1.0,2.0,2.0,2.0,2.0,2.0,2.0,2.0
912700148556792806,0.0,quangninh,6,20.86378,106.66353,REGULAR,Căn hộ 1 ngủ Vinhomes Imperia,entire_home,0,0,536003,2,2.0,1.0,1.0,1.0,2.0,1.0,2.0,1.0,2.0,2.0,0.0,0.0,0.0,2.0,2.0,2.0,2.0,2.0,0.0,0.0,1.0,2.0,2.0,1.0,2.0,2.0,2.0,2.0,2.0,2.0,2.0,2.0,1.0,2.0,2.0,2.0,2.0,2.0,2.0
872279379215375728,0.0,quangninh,12,20.85748,106.68327,REGULAR,Sunflower Homestay (Nhà sàn riêng biệt),private_room,1,0,440000,2,2.0,1.0,1.0,1.0,2.0,1.0,2.0,1.0,1.0,2.0,1.0,1.0,0.25,1.0,2.0,2.0,2.0,2.0,0.0,2.0,1.0,2.0,1.0,2.0,2.0,2.0,2.0,2.0,2.0,2.0,2.0,2.0,2.0,2.0,2.0,2.0,2.0,2.0,2.0
762920341516026005,0.0,quangninh,13,20.86354,106.6681,REGULAR,"Căn hộ Vinhomes Imperia rộng rãi, đầy đủ nội thất",private_room,0,0,571845,2,2.0,1.0,1.0,1.0,1.0,2.0,2.0,2.0,2.0,2.0,0.0,1.0,0.0,2.0,1.0,2.0,2.0,2.0,0.0,0.0,1.0,2.0,2.0,1.0,2.0,2.0,2.0,2.0,0.0,2.0,2.0,2.0,2.0,2.0,2.0,2.0,2.0,2.0,2.0
41524341,0.0,quangninh,30,20.85288,106.71455,REGULAR,Căn hộ S20 - Phòng học - Hải Phòng,entire_home,0,0,467883,6,2.0,1.0,1.0,2.0,2.0,2.0,2.0,1.0,1.0,2.0,0.0,0.0,0.0,2.0,1.0,2.0,2.0,2.0,0.0,0.0,1.0,2.0,2.0,1.0,2.0,2.0,2.0,2.0,2.0,2.0,2.0,2.0,2.0,2.0,1.0,2.0,2.0,2.0,2.0
908303348247510268,0.0,quangninh,8,20.86807,106.65516,REGULAR,Phòng Master giường lớn trong căn hộ 2 phòng ngủ,private_room,0,0,517940,1,2.0,1.0,1.0,1.0,1.0,1.0,2.0,1.0,2.0,2.0,0.0,1.0,0.0,1.0,2.0,2.0,2.0,2.0,0.0,2.0,1.0,2.0,2.0,1.0,2.0,2.0,2.0,2.0,2.0,2.0,2.0,2.0,2.0,2.0,2.0,2.0,2.0,2.0,2.0
31368160,4.75,quangninh,7,20.94332,107.02347,REGULAR,Phòng Hoa Hồng tại Nhà khách Đặng Quảng.,private_room,17,0,584283,2,2.0,2.0,1.0,2.0,2.0,1.0,2.0,1.0,1.0,2.0,0.0,0.0,0.0,2.0,2.0,2.0,2.0,1.0,0.0,2.0,1.0,2.0,1.0,2.0,2.0,2.0,2.0,1.0,2.0,2.0,1.0,2.0,2.0,2.0,2.0,2.0,2.0,2.0,2.0
848140337261615281,0.0,quangninh,13,20.9614104,107.0084906,REGULAR,-15% Studio with amazing views of Cua Luc Gulf,entire_home,0,0,513530,3,1.0,1.0,1.0,2.0,2.0,1.0,1.0,2.0,2.0,2.0,0.0,0.0,0.0,2.0,2.0,1.0,2.0,2.0,0.0,2.0,1.0,2.0,2.0,2.0,2.0,2.0,2.0,2.0,2.0,1.0,2.0,2.0,2.0,2.0,2.0,1.0,2.0,2.0,2.0
689575507748843049,0.0,quangninh,6,20.86451,106.66381,REPRESENTATIVE,Merci Apartment & Homestay số 11 - Vinhome Imperia,private_room,0,0,532000,2,2.0,1.0,1.0,1.0,2.0,1.0,2.0,1.0,2.0,2.0,0.0,0.0,0.0,2.0,2.0,2.0,2.0,2.0,0.0,0.0,1.0,2.0,1.0,1.0,2.0,2.0,2.0,2.0,2.0,2.0,2.0,2.0,2.0,2.0,2.0,2.0,2.0,2.0,2.0
27642684,4.85,quangninh,12,20.9675,107.02054,REGULAR,Phòng đôi riêng đẹp - Nhà khách Đặng Quang,private_room,21,0,524941,2,2.0,2.0,1.0,2.0,2.0,1.0,2.0,2.0,1.0,2.0,0.0,1.0,5.0,1.0,2.0,2.0,2.0,1.0,0.0,2.0,1.0,2.0,1.0,2.0,2.0,2.0,2.0,1.0,2.0,2.0,1.0,2.0,2.0,2.0,2.0,2.0,2.0,2.0,2.0
572672574025788221,4.43,quangninh,13,20.73782,107.03279,REGULAR,Cabin trên cùng Moutain M5,private_room,14,0,570589,2,2.0,2.0,1.0,2.0,1.0,2.0,2.0,2.0,2.0,2.0,0.0,1.0,7.0,1.0,1.0,2.0,2.0,2.0,0.0,0.0,1.0,1.0,2.0,1.0,2.0,2.0,2.0,2.0,2.0,2.0,2.0,2.0,2.0,2.0,2.0,2.0,2.0,2.0,2.0
864207680372972510,0.0,quangninh,16,20.960632784088556,107.00610235333443,REGULAR,Green Bay Garden Residence Hạ Long,private_room,0,0,547765,1,1.0,1.0,1.0,1.0,1.0,2.0,2.0,2.0,2.0,2.0,0.0,1.0,0.0,1.0,1.0,2.0,2.0,2.0,2.0,2.0,1.0,2.0,2.0,2.0,2.0,2.0,2.0,2.0,2.0,2.0,2.0,2.0,1.0,2.0,2.0,2.0,2.0,2.0,2.0
41015291,4.63,quangninh,25,20.95796,107.09079,REGULAR,Hạ Long Nhà truyền thống ngư dân địa phương,private_room,8,0,460000,2,2.0,1.0,1.0,1.0,2.0,1.0,2.0,2.0,1.0,2.0,1.0,1.0,6.0,1.0,2.0,2.0,2.0,2.0,0.0,0.0,1.0,2.0,2.0,2.0,2.0,2.0,2.0,1.0,2.0,2.0,2.0,2.0,2.0,2.0,2.0,2.0,2.0,2.0,2.0
691555147299292506,4.76,quangninh,6,20.72553,107.04994,REGULAR,Little Việt Nam - Cat Ba Central Boutique Hostel,private_room,17,0,427941,2,2.0,2.0,1.0,2.0,2.0,1.0,2.0,1.0,1.0,2.0,0.0,0.0,0.0,2.0,2.0,2.0,2.0,2.0,0.0,0.0,2.0,2.0,2.0,2.0,2.0,2.0,2.0,2.0,2.0,2.0,2.0,2.0,2.0,2.0,2.0,2.0,2.0,2.0,2.0
770665047969764300,5.0,quangninh,19,20.95797,107.00413,REGULAR,Thủy Tùng Hạ Long Homestay,entire_home,3,0,570589,2,1.0,1.0,1.0,1.0,1.0,1.0,2.0,2.0,2.0,2.0,0.0,0.0,0.0,2.0,1.0,2.0,2.0,2.0,0.0,2.0,1.0,2.0,2.0,2.0,2.0,2.0,2.0,2.0,2.0,2.0,2.0,2.0,2.0,2.0,2.0,2.0,2.0,2.0,2.0
877093501297971158,0.0,quangninh,5,20.72777,107.04284,REGULAR,Seoul Hotel And Apartment - Deluxe room 304,private_room,0,0,446737,2,1.0,2.0,1.0,1.0,2.0,1.0,2.0,1.0,1.0,2.0,0.0,0.0,0.0,2.0,2.0,1.0,2.0,2.0,0.0,2.0,1.0,2.0,2.0,1.0,2.0,2.0,2.0,2.0,2.0,2.0,2.0,2.0,2.0,2.0,2.0,2.0,2.0,2.0,2.0
40493182,4.77,quangninh,30,20.95258,107.02373,REGULAR,Căn hộ 2 phòng ngủ ấm cúng Tầm nhìn⭐ tuyệt đẹp ra Vịnh⭐ Neares Harbour,entire_home,26,0,574824,5,1.0,1.0,1.0,1.0,1.0,1.0,1.0,2.0,2.0,2.0,0.0,0.0,0.0,2.0,1.0,1.0,2.0,2.0,0.0,2.0,2.0,2.0,2.0,2.0,2.0,2.0,2.0,2.0,2.0,2.0,2.0,2.0,2.0,2.0,2.0,2.0,2.0,2.0,2.0
40064943,4.83,quangninh,30,20.76961,107.06405,REGULAR,"7. InnerX-Stay, Ha Long Floating Homestay",private_room,84,0,571884,2,2.0,2.0,2.0,2.0,2.0,2.0,2.0,2.0,2.0,2.0,1.0,1.0,5.0,1.0,2.0,2.0,2.0,1.0,0.0,0.0,2.0,2.0,2.0,2.0,2.0,2.0,2.0,2.0,2.0,2.0,2.0,1.0,2.0,2.0,2.0,2.0,2.0,2.0,2.0
33233157,4.91,quangninh,30,20.76873,107.06524,REGULAR,"2.InnerX-Stay, Ha Long Floating Homestay",private_room,183,0,566494,2,2.0,2.0,2.0,2.0,2.0,2.0,2.0,2.0,2.0,2.0,1.0,1.0,5.0,1.0,2.0,1.0,2.0,1.0,0.0,0.0,2.0,2.0,2.0,2.0,2.0,2.0,2.0,2.0,2.0,2.0,2.0,1.0,2.0,2.0,2.0,2.0,2.0,2.0,2.0
41479916,4.91,quangninh,30,20.77434,107.05092,REGULAR,"8. InnerX-Stay, Ha Long Floating Homestay",private_room,46,0,571884,2,2.0,2.0,2.0,2.0,2.0,2.0,2.0,2.0,2.0,2.0,1.0,1.0,5.0,2.0,2.0,2.0,2.0,1.0,0.0,0.0,2.0,2.0,2.0,2.0,2.0,2.0,2.0,2.0,0.0,2.0,2.0,1.0,2.0,2.0,2.0,2.0,2.0,2.0,2.0
681005607431395780,0.0,quangninh,7,20.769714396250126,107.02152815654705,REGULAR,Cat ba park homestay - single room 2,private_room,0,0,570589,2,2.0,1.0,1.0,1.0,2.0,2.0,2.0,2.0,2.0,2.0,0.0,0.0,0.0,2.0,1.0,2.0,2.0,2.0,0.0,0.0,1.0,1.0,2.0,1.0,2.0,2.0,2.0,2.0,2.0,2.0,2.0,2.0,2.0,2.0,2.0,2.0,2.0,2.0,2.0
872325269872669589,0.0,quangninh,5,20.92773,106.99043,REGULAR,ADA MOTEL - Phòng Tiêu Chuẩn,private_room,0,0,546852,2,1.0,1.0,1.0,1.0,2.0,1.0,2.0,1.0,1.0,2.0,0.0,0.0,0.0,2.0,2.0,2.0,2.0,2.0,2.0,2.0,1.0,2.0,2.0,1.0,2.0,2.0,2.0,1.0,2.0,2.0,2.0,2.0,2.0,2.0,2.0,2.0,2.0,2.0,2.0
762920246060825122,0.0,quangninh,7,20.86541,106.66213,REGULAR,"Căn hộ 1 ngủ rộng rãi, full đồ Vinhomes Imperia",entire_home,0,0,578883,2,2.0,1.0,1.0,1.0,2.0,1.0,2.0,1.0,2.0,2.0,0.0,0.0,0.0,2.0,2.0,2.0,2.0,2.0,0.0,0.0,1.0,2.0,2.0,1.0,2.0,2.0,2.0,2.0,2.0,2.0,2.0,2.0,1.0,2.0,2.0,2.0,2.0,2.0,2.0
30514217,4.36,quangninh,30,20.73696,107.04256,REGULAR,Cabin trên đỉnh núi M2,private_room,89,0,570589,2,2.0,2.0,1.0,2.0,1.0,2.0,2.0,2.0,1.0,2.0,0.0,1.0,7.0,1.0,1.0,1.0,2.0,2.0,0.0,0.0,1.0,2.0,2.0,2.0,1.0,2.0,2.0,2.0,2.0,2.0,2.0,2.0,2.0,2.0,2.0,2.0,2.0,2.0,2.0
861279501044710852,0.0,quangninh,23,20.767532946711253,107.02153399160157,REGULAR,Cat Ba Countryside Homestay for a Real Holiday,private_room,2,0,521479,4,2.0,2.0,1.0,2.0,1.0,2.0,2.0,2.0,1.0,1.0,0.0,1.0,5.0,1.0,2.0,2.0,2.0,2.0,0.0,0.0,1.0,2.0,2.0,1.0,2.0,2.0,2.0,1.0,2.0,2.0,2.0,2.0,2.0,2.0,2.0,2.0,2.0,2.0,2.0
933079501491577498,0.0,quangninh,15,20.8638939,106.6565633,REGULAR,A private room of an apartment,private_room,0,0,520303,2,2.0,1.0,1.0,1.0,1.0,1.0,1.0,2.0,1.0,2.0,0.0,0.0,0.0,2.0,2.0,2.0,2.0,2.0,0.0,2.0,2.0,2.0,2.0,1.0,1.0,2.0,2.0,2.0,2.0,2.0,2.0,2.0,2.0,2.0,2.0,2.0,2.0,2.0,2.0
5731586,4.67,quangninh,13,20.94952,107.07594,REGULAR,STUDIO RIÊNG cho cặp đôi @ center of Hạ Long,entire_home,3,0,414038,3,2.0,1.0,1.0,2.0,2.0,1.0,2.0,2.0,2.0,2.0,0.0,0.0,0.0,2.0,2.0,2.0,1.0,2.0,0.0,0.0,1.0,2.0,1.0,2.0,2.0,2.0,2.0,1.0,2.0,2.0,1.0,2.0,2.0,2.0,2.0,2.0,2.0,2.0,2.0
41463226,0.0,quangninh,30,20.96141,107.04637,REGULAR,Phòng King với tầm nhìn ra vườn/ Bên phải Trung tâm Hạ Long.,private_room,2,0,587706,2,2.0,2.0,1.0,2.0,2.0,1.0,2.0,2.0,1.0,2.0,0.0,1.0,6.0,2.0,2.0,1.0,2.0,1.0,0.0,0.0,1.0,2.0,2.0,2.0,2.0,2.0,2.0,1.0,0.0,2.0,2.0,2.0,2.0,2.0,2.0,2.0,2.0,2.0,2.0
876457814430937838,0.0,quangninh,6,20.959,107.00691,REGULAR,Amoureux Ha Long Bay,private_room,0,0,549945,3,1.0,1.0,1.0,1.0,2.0,1.0,2.0,1.0,1.0,2.0,0.0,0.0,0.0,2.0,2.0,2.0,2.0,2.0,0.0,2.0,1.0,2.0,2.0,1.0,2.0,2.0,2.0,2.0,2.0,2.0,2.0,2.0,2.0,2.0,2.0,2.0,2.0,2.0,2.0
43406669,4.6,quangninh,3,20.84802,106.711,REPRESENTATIVE,Phòng tiêu chuẩn,private_room,5,0,541200,2,2.0,1.0,1.0,1.0,2.0,1.0,2.0,1.0,1.0,2.0,0.0,0.0,0.0,2.0,1.0,1.0,2.0,2.0,2.0,2.0,1.0,2.0,1.0,2.0,2.0,2.0,2.0,2.0,2.0,2.0,2.0,2.0,2.0,2.0,2.0,2.0,2.0,2.0,2.0
41826412,4.25,quangninh,26,20.86439,106.69117,REGULAR,Căn hộ Studio Khánh Phong PG0220 Vincom,entire_home,4,0,544589,2,2.0,1.0,1.0,1.0,2.0,1.0,1.0,1.0,1.0,2.0,0.0,0.0,0.0,2.0,2.0,1.0,2.0,2.0,2.0,2.0,1.0,2.0,2.0,2.0,2.0,2.0,2.0,1.0,2.0,2.0,2.0,2.0,2.0,2.0,2.0,2.0,2.0,2.0,2.0
621281615506557263,0.0,quangninh,6,20.94764,107.10624,REGULAR,Phòng ngủ đáng yêu ở thành phố Hạ Long,private_room,0,0,429083,2,2.0,2.0,1.0,2.0,2.0,1.0,2.0,2.0,1.0,2.0,0.0,0.0,0.0,2.0,2.0,2.0,2.0,2.0,0.0,0.0,1.0,2.0,2.0,1.0,2.0,2.0,2.0,2.0,2.0,2.0,2.0,2.0,2.0,2.0,2.0,2.0,2.0,2.0,2.0
607108181210772447,5.0,quangninh,7,20.9543,107.04384,REGULAR,Khách sạn Phương Nam,private_room,4,0,524941,4,1.0,2.0,1.0,1.0,2.0,1.0,2.0,2.0,1.0,2.0,0.0,0.0,0.0,2.0,1.0,1.0,2.0,2.0,0.0,2.0,1.0,2.0,2.0,1.0,2.0,2.0,2.0,2.0,2.0,2.0,2.0,2.0,2.0,2.0,2.0,2.0,2.0,2.0,2.0
31153517,4.46,quangninh,3,20.73862,107.03225,REGULAR,Cabin Núi trên M6,private_room,24,0,570589,2,2.0,2.0,1.0,2.0,1.0,2.0,2.0,2.0,1.0,1.0,0.0,0.0,0.0,2.0,1.0,1.0,2.0,2.0,0.0,0.0,1.0,2.0,2.0,1.0,2.0,2.0,2.0,2.0,2.0,2.0,2.0,2.0,2.0,2.0,2.0,2.0,2.0,2.0,2.0
790275223727802935,0.0,quangninh,14,20.9625,107.05282,REGULAR,Ngôi nhà hạnh phúc để bạn thư giãn,private_room,0,0,437071,16,1.0,2.0,1.0,2.0,2.0,1.0,2.0,2.0,1.0,2.0,0.0,0.0,0.0,2.0,2.0,2.0,2.0,2.0,0.0,2.0,2.0,2.0,2.0,1.0,2.0,2.0,2.0,2.0,2.0,2.0,2.0,1.0,2.0,2.0,2.0,2.0,2.0,2.0,2.0
22295218,4.69,quangninh,12,20.95315,107.09139,REGULAR,"Phòng rộng rãi, hướng ra làng trên đồi",private_room,29,0,496427,2,2.0,2.0,1.0,1.0,2.0,1.0,1.0,2.0,1.0,2.0,0.0,0.0,0.0,2.0,2.0,2.0,2.0,1.0,0.0,2.0,1.0,2.0,2.0,2.0,2.0,2.0,2.0,1.0,2.0,2.0,2.0,2.0,2.0,2.0,2.0,2.0,2.0,2.0,2.0
41480047,4.84,quangninh,30,20.77472,107.05269,REGULAR,"9. InnerX-Stay, Ha Long Floating Homestay",private_room,51,0,566494,2,2.0,2.0,2.0,2.0,2.0,2.0,2.0,2.0,2.0,1.0,1.0,1.0,5.0,2.0,1.0,2.0,1.0,1.0,0.0,0.0,2.0,2.0,2.0,2.0,2.0,1.0,2.0,2.0,0.0,2.0,2.0,1.0,2.0,2.0,2.0,2.0,2.0,2.0,2.0
861275879144545110,0.0,quangninh,23,20.76745269270024,107.02149107625733,REGULAR,Cat Ba Countryside Homestay 2,private_room,2,0,521479,4,2.0,2.0,1.0,2.0,1.0,2.0,2.0,2.0,1.0,1.0,0.0,1.0,5.0,1.0,2.0,2.0,2.0,2.0,0.0,0.0,1.0,2.0,2.0,1.0,2.0,2.0,2.0,1.0,2.0,2.0,2.0,2.0,2.0,2.0,2.0,2.0,2.0,2.0,2.0
25329705,4.22,quangninh,27,20.73938,107.03167,REGULAR,Cabin trên đỉnh núi M1,private_room,32,0,570589,2,2.0,2.0,1.0,2.0,1.0,2.0,2.0,2.0,1.0,1.0,0.0,1.0,7.0,1.0,1.0,1.0,2.0,2.0,0.0,0.0,1.0,2.0,2.0,2.0,2.0,2.0,2.0,2.0,2.0,2.0,2.0,2.0,2.0,2.0,2.0,2.0,2.0,2.0,2.0
745951286202868450,0.0,quangninh,16,20.84628,106.68847,REGULAR,Nhà 1 phòng ngủ vui vẻ ở trung tâm Hải Phòng,private_room,0,0,546135,2,2.0,1.0,1.0,1.0,2.0,1.0,2.0,2.0,1.0,2.0,1.0,1.0,0.0,1.0,2.0,2.0,2.0,2.0,0.0,0.0,2.0,2.0,2.0,1.0,1.0,2.0,2.0,2.0,2.0,2.0,2.0,2.0,2.0,2.0,2.0,2.0,2.0,2.0,2.0
903569343686468379,0.0,quangninh,5,20.959119280499998,107.0063051,REGULAR,Happy vacation,entire_home,0,0,517940,3,1.0,1.0,1.0,1.0,2.0,1.0,2.0,1.0,1.0,2.0,0.0,0.0,0.0,2.0,2.0,2.0,2.0,2.0,0.0,2.0,1.0,2.0,2.0,1.0,2.0,2.0,2.0,2.0,2.0,2.0,2.0,2.0,2.0,2.0,2.0,2.0,2.0,2.0,2.0
47106315,0.0,quangninh,30,20.95152,107.07674,REGULAR,Hùng Vương R402 - Khách sạn Boutique tại trung tâm Hạ Long,private_room,0,0,513530,2,2.0,2.0,1.0,1.0,2.0,1.0,1.0,2.0,1.0,2.0,0.0,0.0,0.0,2.0,2.0,2.0,2.0,2.0,0.0,0.0,1.0,2.0,2.0,2.0,2.0,2.0,2.0,1.0,2.0,2.0,1.0,2.0,2.0,2.0,2.0,2.0,2.0,2.0,2.0
40735273,0.0,quangninh,21,20.86374,106.6912,REGULAR,Khánh Phong Apartment PG02-20 Vincom LTT,private_room,0,0,523412,2,2.0,1.0,1.0,1.0,2.0,1.0,1.0,1.0,1.0,2.0,0.0,0.0,0.0,2.0,2.0,1.0,2.0,2.0,2.0,2.0,1.0,2.0,2.0,2.0,2.0,2.0,2.0,2.0,2.0,2.0,2.0,2.0,2.0,2.0,2.0,2.0,1.0,2.0,2.0
893144354371085081,0.0,quangninh,13,20.91947,106.99202,REGULAR,Mộc Trà Tuần Châu không view 302,private_room,0,0,684706,2,1.0,2.0,1.0,1.0,2.0,1.0,2.0,2.0,1.0,2.0,0.0,0.0,0.0,2.0,2.0,2.0,2.0,2.0,0.0,2.0,1.0,2.0,2.0,1.0,2.0,2.0,2.0,1.0,2.0,2.0,1.0,2.0,2.0,2.0,2.0,2.0,2.0,2.0,2.0
31153675,0.0,quangninh,13,20.7381,107.03298,REGULAR,Cabin Núi trên M3,private_room,0,0,570589,2,1.0,2.0,1.0,2.0,1.0,2.0,2.0,2.0,1.0,2.0,0.0,0.0,0.0,2.0,1.0,1.0,2.0,2.0,0.0,0.0,1.0,2.0,2.0,2.0,2.0,2.0,2.0,2.0,2.0,2.0,2.0,2.0,2.0,2.0,2.0,2.0,2.0,2.0,2.0
40311916,0.0,quangninh,12,20.83847,106.7122,REGULAR,Căn Hộ Superior,private_room,0,0,550000,2,2.0,1.0,1.0,2.0,2.0,1.0,1.0,1.0,1.0,2.0,0.0,1.0,0.0,2.0,2.0,1.0,2.0,2.0,0.0,2.0,1.0,2.0,2.0,2.0,2.0,2.0,2.0,2.0,0.0,2.0,2.0,2.0,2.0,2.0,2.0,2.0,2.0,2.0,2.0
798321189717818248,0.0,quangninh,26,20.8599097,106.6726417,REGULAR,Lều Vịt Sữa 3,private_room,0,0,552330,2,2.0,1.0,1.0,1.0,2.0,2.0,2.0,1.0,2.0,2.0,0.0,0.0,0.0,2.0,2.0,2.0,2.0,2.0,0.0,0.0,1.0,2.0,1.0,1.0,2.0,2.0,2.0,2.0,2.0,2.0,2.0,2.0,2.0,1.0,2.0,2.0,2.0,2.0,2.0
856215722633830732,0.0,quangninh,13,20.7263761,107.0525823,REGULAR,cat ba homely,private_room,0,0,510024,2,2.0,1.0,1.0,2.0,2.0,1.0,2.0,1.0,1.0,2.0,0.0,0.0,0.0,2.0,2.0,2.0,2.0,2.0,0.0,0.0,1.0,2.0,2.0,2.0,2.0,2.0,2.0,2.0,2.0,2.0,2.0,2.0,2.0,2.0,2.0,2.0,2.0,2.0,2.0
25445014,0.0,quangninh,14,20.95842,107.09261,REGULAR,Phòng twin quyến rũ ở trung tâm vịnh Hạ Long,private_room,2,0,472788,2,2.0,1.0,1.0,1.0,2.0,1.0,2.0,1.0,2.0,2.0,1.0,1.0,6.0,1.0,2.0,2.0,2.0,2.0,0.0,0.0,1.0,2.0,2.0,2.0,2.0,2.0,2.0,2.0,2.0,2.0,2.0,2.0,1.0,2.0,2.0,2.0,2.0,2.0,2.0
797336625412679403,0.0,quangninh,6,20.8269838,106.6842323,REGULAR,Sunrise Hotel Hải Phòng,private_room,0,0,431535,16,2.0,2.0,1.0,1.0,2.0,1.0,2.0,1.0,1.0,2.0,0.0,0.0,0.0,2.0,2.0,1.0,1.0,2.0,2.0,2.0,1.0,2.0,2.0,2.0,2.0,2.0,2.0,2.0,2.0,2.0,2.0,2.0,2.0,2.0,2.0,2.0,2.0,2.0,2.0
826757295417624156,0.0,quangninh,6,20.847422986559234,106.70854010019156,REGULAR,Khách sạn & Căn hộ Au79,private_room,0,0,491887,2,2.0,1.0,1.0,2.0,2.0,1.0,2.0,2.0,1.0,1.0,0.0,1.0,0.0,1.0,2.0,1.0,2.0,2.0,0.0,2.0,1.0,2.0,2.0,1.0,2.0,2.0,2.0,2.0,2.0,2.0,2.0,2.0,2.0,2.0,2.0,2.0,2.0,2.0,2.0
789720520403397482,0.0,quangninh,21,20.951087123089955,107.02525927814541,REGULAR,Hotel Song Ngọc hạ long,private_room,0,0,531406,16,2.0,1.0,1.0,1.0,2.0,1.0,2.0,2.0,1.0,2.0,0.0,0.0,0.0,2.0,2.0,1.0,1.0,2.0,0.0,2.0,1.0,2.0,2.0,1.0,2.0,2.0,2.0,2.0,2.0,2.0,2.0,2.0,2.0,2.0,2.0,2.0,2.0,2.0,2.0
53018315,0.0,quangninh,11,20.86417,106.66102,REPRESENTATIVE,Merci Apartment & Homestay No. 9 - Vinhomes Imperia,private_room,2,0,560000,2,2.0,1.0,1.0,1.0,2.0,1.0,1.0,1.0,2.0,2.0,0.0,1.0,3.0,1.0,2.0,2.0,2.0,2.0,2.0,2.0,1.0,2.0,1.0,2.0,2.0,2.0,2.0,1.0,2.0,2.0,2.0,2.0,2.0,2.0,2.0,2.0,2.0,2.0,2.0
681005710681680261,0.0,quangninh,10,20.769271595455304,107.02155965395325,REGULAR,Cat ba park homestay - single room - 04,private_room,0,0,570589,2,2.0,1.0,1.0,1.0,2.0,2.0,2.0,2.0,2.0,2.0,0.0,0.0,0.0,2.0,1.0,2.0,2.0,2.0,0.0,0.0,1.0,1.0,2.0,1.0,2.0,1.0,2.0,2.0,2.0,2.0,2.0,2.0,2.0,2.0,2.0,2.0,2.0,2.0,2.0
853537812481108143,5.0,quangninh,7,20.91781926032453,106.99102088867187,REGULAR,#1 Chuyến đi trong ngày ở Vịnh Hạ Long - Đảo Ti Top (Titov),entire_home,3,0,587478,8,1.0,2.0,1.0,2.0,2.0,1.0,2.0,2.0,1.0,2.0,0.0,0.0,0.0,2.0,1.0,1.0,2.0,2.0,0.0,2.0,2.0,2.0,1.0,2.0,2.0,2.0,2.0,2.0,2.0,1.0,2.0,2.0,2.0,2.0,2.0,2.0,2.0,2.0,2.0
38031371,0.0,quangninh,4,20.94903,107.07327,REGULAR,Giường đôi Cao cấp,hotel_room,0,0,570589,1,2.0,2.0,1.0,2.0,2.0,1.0,1.0,2.0,1.0,2.0,0.0,0.0,0.0,2.0,2.0,2.0,2.0,1.0,2.0,2.0,1.0,2.0,2.0,2.0,2.0,2.0,2.0,1.0,2.0,2.0,2.0,1.0,2.0,2.0,1.0,2.0,2.0,2.0,2.0
872324668604471456,0.0,quangninh,5,20.92635,106.99042,REGULAR,Phòng Tiêu Chuẩn - ADA MOTEL,private_room,0,0,546852,2,1.0,1.0,1.0,1.0,2.0,1.0,2.0,1.0,1.0,2.0,0.0,0.0,0.0,2.0,2.0,1.0,2.0,2.0,2.0,2.0,1.0,2.0,2.0,1.0,2.0,2.0,2.0,2.0,2.0,2.0,2.0,2.0,2.0,2.0,2.0,2.0,2.0,2.0,2.0
886662643770448502,0.0,quangninh,7,20.72870649902921,107.04852518972771,REGULAR,Standard room . May Hostel,private_room,0,0,509421,2,2.0,2.0,1.0,2.0,2.0,1.0,2.0,2.0,1.0,2.0,0.0,0.0,0.0,2.0,2.0,1.0,1.0,2.0,0.0,2.0,1.0,2.0,2.0,1.0,2.0,2.0,2.0,2.0,2.0,2.0,2.0,2.0,2.0,2.0,2.0,2.0,2.0,2.0,2.0
30113513,0.0,quangninh,30,20.97821,107.01837,REGULAR,PHÒNG RIÊNG ẤM CÚNG + SẠCH SẼ! TRUNG TÂM HẠ LONG,private_room,1,0,570589,3,2.0,1.0,1.0,2.0,2.0,1.0,2.0,1.0,1.0,2.0,0.0,1.0,5.0,1.0,2.0,1.0,2.0,2.0,0.0,0.0,1.0,2.0,2.0,2.0,2.0,2.0,2.0,2.0,2.0,2.0,2.0,2.0,2.0,2.0,2.0,2.0,2.0,2.0,2.0
877054068579878806,0.0,quangninh,5,20.72905,107.04205,REGULAR,Seoul Hotel And Apartment - Deluxe Room 303,private_room,0,0,440244,2,1.0,2.0,1.0,1.0,2.0,1.0,2.0,1.0,1.0,2.0,0.0,0.0,0.0,2.0,2.0,1.0,2.0,2.0,0.0,2.0,1.0,2.0,2.0,1.0,2.0,2.0,2.0,2.0,2.0,2.0,2.0,2.0,2.0,2.0,2.0,2.0,2.0,2.0,2.0
32270561,0.0,quangninh,9,20.72772,107.05241,REGULAR,Khách sạn Cát Bà Venus,private_room,0,0,570589,4,2.0,2.0,1.0,2.0,2.0,1.0,1.0,2.0,1.0,2.0,0.0,0.0,0.0,2.0,2.0,2.0,2.0,1.0,0.0,0.0,1.0,2.0,2.0,2.0,2.0,2.0,2.0,1.0,2.0,2.0,2.0,1.0,2.0,2.0,2.0,2.0,2.0,2.0,2.0
879076829911338128,0.0,quangninh,8,20.85199,106.68446,REGULAR,Homestay trung tâm thành phố,entire_home,0,0,438212,4,2.0,1.0,1.0,1.0,2.0,1.0,2.0,2.0,1.0,2.0,0.0,0.0,0.0,2.0,2.0,1.0,2.0,2.0,0.0,0.0,1.0,2.0,2.0,2.0,2.0,2.0,2.0,2.0,2.0,2.0,2.0,2.0,2.0,2.0,2.0,2.0,2.0,2.0,2.0
681005679802525469,0.0,quangninh,8,20.76925515488398,107.02160801917117,REGULAR,Cat ba park homestay - phòng đơn 3,private_room,0,0,570589,2,2.0,1.0,1.0,1.0,2.0,2.0,2.0,2.0,2.0,2.0,0.0,0.0,0.0,2.0,1.0,2.0,2.0,2.0,0.0,0.0,1.0,1.0,2.0,1.0,2.0,2.0,2.0,2.0,2.0,2.0,2.0,2.0,2.0,2.0,2.0,2.0,2.0,2.0,2.0
864051923932624320,0.0,quangninh,7,20.865822423043802,106.66750392463685,REGULAR,Merci Apartment & Homestay No.9 - Vinhomes Imperia,private_room,1,0,590000,2,2.0,1.0,1.0,2.0,2.0,1.0,2.0,1.0,1.0,2.0,0.0,1.0,3.0,1.0,2.0,2.0,2.0,2.0,0.0,2.0,1.0,2.0,1.0,1.0,2.0,2.0,2.0,2.0,2.0,2.0,2.0,2.0,2.0,2.0,2.0,2.0,2.0,2.0,2.0
908559347314060222,0.0,quangninh,10,20.958215970939822,107.02135856206876,REGULAR,Babylon Ha Long Hotel,private_room,0,0,448912,16,1.0,2.0,1.0,1.0,2.0,1.0,2.0,1.0,1.0,2.0,0.0,0.0,0.0,2.0,2.0,2.0,2.0,2.0,0.0,2.0,1.0,2.0,2.0,2.0,2.0,2.0,2.0,2.0,2.0,2.0,2.0,1.0,2.0,2.0,2.0,2.0,2.0,2.0,2.0
40619775,0.0,quangninh,10,20.9585,107.00832,REGULAR,Bin house homestay ngôi nhà của bạn,private_room,0,0,573977,4,1.0,1.0,1.0,2.0,2.0,1.0,1.0,1.0,1.0,2.0,0.0,1.0,0.0,2.0,2.0,2.0,2.0,2.0,0.0,2.0,2.0,2.0,2.0,2.0,2.0,2.0,2.0,1.0,0.0,2.0,2.0,2.0,2.0,2.0,2.0,2.0,2.0,2.0,2.0
771395602352867915,0.0,quangninh,5,20.87096,106.66662,REGULAR,Căn hộ xinh xắn Vinhomes Imperia,private_room,0,0,513530,2,2.0,1.0,1.0,1.0,2.0,1.0,2.0,1.0,1.0,2.0,0.0,1.0,0.0,2.0,2.0,2.0,2.0,2.0,0.0,0.0,1.0,2.0,2.0,2.0,2.0,2.0,2.0,2.0,0.0,2.0,2.0,2.0,2.0,2.0,2.0,2.0,2.0,2.0,2.0
904858687749390055,0.0,quangninh,11,20.83235,106.70543,REGULAR,Holiday Hotel,private_room,0,0,512160,2,2.0,2.0,1.0,1.0,2.0,1.0,2.0,1.0,1.0,2.0,0.0,0.0,0.0,2.0,2.0,1.0,2.0,2.0,2.0,2.0,1.0,2.0,2.0,2.0,2.0,2.0,2.0,1.0,2.0,2.0,2.0,2.0,2.0,2.0,2.0,2.0,2.0,2.0,2.0
920768172756181135,0.0,quangninh,11,20.9602618,107.008402,REGULAR,homestay Studio giá bình dân,private_room,0,0,584283,3,1.0,1.0,1.0,2.0,2.0,1.0,2.0,1.0,1.0,2.0,0.0,0.0,0.0,2.0,2.0,2.0,2.0,2.0,0.0,2.0,1.0,2.0,2.0,1.0,2.0,2.0,2.0,2.0,2.0,2.0,2.0,2.0,2.0,2.0,2.0,2.0,2.0,2.0,2.0
877061058396844670,0.0,quangninh,15,20.9561,107.00333,REGULAR,Halong And Me Ancient Town View,private_room,0,0,494011,3,1.0,1.0,1.0,1.0,2.0,2.0,2.0,1.0,1.0,2.0,0.0,1.0,0.0,1.0,2.0,2.0,2.0,2.0,0.0,0.0,1.0,2.0,2.0,2.0,2.0,2.0,2.0,2.0,2.0,2.0,2.0,2.0,2.0,2.0,2.0,2.0,2.0,2.0,2.0
872310628734882015,0.0,quangninh,5,20.91960935590495,106.98938136182937,REGULAR,Phòng Tiêu Chuẩn - ADA MOTEL,private_room,0,0,546852,2,1.0,1.0,1.0,1.0,2.0,1.0,2.0,1.0,1.0,2.0,0.0,0.0,0.0,2.0,2.0,2.0,2.0,2.0,2.0,2.0,1.0,2.0,2.0,1.0,2.0,2.0,2.0,1.0,2.0,2.0,2.0,2.0,2.0,2.0,2.0,2.0,2.0,2.0,2.0
25445220,4.33,quangninh,28,20.95764,107.09237,REGULAR,Phong cách ngư dân phòng đôi ấm cúng ở vịnh Hạ Long,private_room,3,0,496427,2,2.0,1.0,1.0,1.0,2.0,1.0,2.0,1.0,2.0,2.0,1.0,1.0,6.0,1.0,2.0,2.0,2.0,2.0,0.0,0.0,1.0,2.0,2.0,2.0,2.0,2.0,2.0,2.0,2.0,2.0,2.0,2.0,1.0,2.0,2.0,2.0,2.0,2.0,2.0
43406834,0.0,quangninh,3,20.846,106.71086,REPRESENTATIVE,Phòng studio,private_room,0,0,539000,2,2.0,1.0,1.0,1.0,2.0,1.0,2.0,2.0,1.0,2.0,0.0,0.0,0.0,2.0,2.0,1.0,2.0,2.0,0.0,2.0,1.0,2.0,2.0,2.0,2.0,2.0,2.0,1.0,2.0,2.0,2.0,2.0,2.0,2.0,2.0,2.0,2.0,2.0,2.0
868833195292495016,0.0,quangninh,24,20.846906926357867,106.70887378244355,REGULAR,Khách Sạn Nam Sơn,private_room,0,0,456471,2,2.0,2.0,1.0,1.0,2.0,1.0,2.0,2.0,1.0,2.0,0.0,0.0,0.0,2.0,2.0,1.0,2.0,2.0,2.0,2.0,1.0,2.0,2.0,2.0,2.0,2.0,2.0,1.0,2.0,2.0,2.0,2.0,2.0,2.0,2.0,2.0,2.0,2.0,2.0
43436338,0.0,quangninh,8,20.9718,107.76541,REGULAR,Anh Nguyễn Hotel,private_room,0,0,456471,16,2.0,2.0,1.0,2.0,2.0,1.0,2.0,2.0,1.0,2.0,0.0,0.0,0.0,2.0,2.0,2.0,2.0,2.0,0.0,0.0,2.0,2.0,2.0,2.0,2.0,2.0,2.0,1.0,2.0,2.0,2.0,2.0,2.0,2.0,2.0,2.0,2.0,2.0,2.0
863594425171812554,0.0,quangninh,30,20.8449115,106.6880841,REGULAR,welcome to bee lucky homestay,entire_home,0,0,456471,4,2.0,1.0,1.0,1.0,1.0,2.0,2.0,1.0,2.0,2.0,0.0,0.0,0.0,2.0,2.0,1.0,2.0,2.0,0.0,2.0,1.0,2.0,2.0,1.0,2.0,2.0,2.0,2.0,2.0,2.0,2.0,2.0,1.0,2.0,2.0,2.0,2.0,2.0,2.0
921363537103384090,0.0,quangninh,5,20.84043562105749,106.69955777116394,REPRESENTATIVE,One Bedroom Apartment,private_room,0,0,584000,2,2.0,1.0,1.0,1.0,2.0,1.0,2.0,1.0,1.0,2.0,0.0,0.0,0.0,2.0,2.0,1.0,2.0,2.0,2.0,2.0,1.0,2.0,2.0,1.0,2.0,2.0,2.0,2.0,2.0,2.0,2.0,2.0,2.0,2.0,2.0,2.0,2.0,2.0,2.0
717961009928753857,0.0,quangninh,6,20.96436,106.99947,REGULAR,Tony House,entire_home,0,0,569447,2,1.0,1.0,1.0,2.0,2.0,1.0,1.0,1.0,1.0,2.0,0.0,0.0,0.0,2.0,1.0,2.0,2.0,2.0,0.0,2.0,2.0,2.0,2.0,2.0,2.0,2.0,2.0,1.0,2.0,2.0,2.0,2.0,2.0,2.0,2.0,2.0,2.0,2.0,2.0
876716094244247723,0.0,quangninh,6,20.7278,107.04262,REGULAR,Seoul Hotel And Apartment - Deluxe Room 101,private_room,0,0,446737,4,1.0,1.0,1.0,1.0,2.0,1.0,2.0,2.0,2.0,2.0,0.0,0.0,0.0,2.0,2.0,1.0,2.0,2.0,0.0,2.0,1.0,2.0,2.0,1.0,2.0,2.0,2.0,2.0,2.0,2.0,2.0,2.0,1.0,2.0,2.0,2.0,2.0,2.0,2.0
776721502207681738,0.0,quangninh,7,20.95326,107.05731,REGULAR,tàu  thăm quan vịnh hạ long,entire_home,0,0,559177,1,1.0,2.0,2.0,1.0,1.0,1.0,2.0,2.0,1.0,2.0,0.0,0.0,0.0,2.0,2.0,2.0,2.0,2.0,0.0,0.0,2.0,2.0,2.0,1.0,2.0,2.0,2.0,2.0,2.0,2.0,2.0,2.0,2.0,2.0,2.0,2.0,2.0,2.0,2.0
37602749,0.0,quangninh,30,20.726360321044922,107.05121612548828,REGULAR,Khách sạn lãng mạn,hotel_room,0,0,570589,4,2.0,2.0,1.0,1.0,2.0,1.0,1.0,1.0,1.0,2.0,0.0,0.0,0.0,2.0,1.0,2.0,2.0,2.0,0.0,2.0,1.0,2.0,2.0,2.0,2.0,2.0,2.0,2.0,2.0,2.0,2.0,2.0,2.0,2.0,2.0,2.0,2.0,1.0,2.0
733832550051758377,0.0,quangninh,5,20.960298972687884,106.99563304295305,REGULAR,Phòng 1 giường ấm cúng với tầm nhìn ra thiên nhiên,private_room,0,0,570589,2,2.0,1.0,1.0,1.0,2.0,1.0,2.0,1.0,1.0,2.0,0.0,0.0,0.0,2.0,2.0,1.0,2.0,2.0,0.0,2.0,1.0,2.0,2.0,1.0,2.0,2.0,2.0,2.0,2.0,2.0,2.0,2.0,2.0,2.0,2.0,2.0,2.0,2.0,2.0
893769931379729745,0.0,quangninh,11,20.95875,107.04707,REGULAR,Khách Sạn Kim Tiến -Hạ Long,private_room,0,0,592345,2,2.0,1.0,1.0,2.0,2.0,1.0,2.0,1.0,1.0,2.0,0.0,0.0,0.0,2.0,2.0,2.0,2.0,2.0,0.0,2.0,1.0,2.0,2.0,1.0,2.0,2.0,2.0,2.0,2.0,2.0,2.0,2.0,2.0,2.0,2.0,2.0,2.0,2.0,2.0
47377468,0.0,quangninh,1,20.73757,107.04175,REGULAR,Phòng Nữ hoàng sang trọng (Valentine Cát Bà),private_room,0,0,456471,2,2.0,1.0,1.0,1.0,2.0,1.0,2.0,1.0,1.0,2.0,0.0,1.0,0.0,1.0,2.0,2.0,2.0,2.0,2.0,2.0,1.0,2.0,1.0,2.0,2.0,2.0,2.0,2.0,2.0,2.0,2.0,2.0,2.0,2.0,1.0,2.0,2.0,2.0,2.0
797376296742733393,0.0,quangninh,7,20.8210366,106.6360269,REGULAR,Viên Hương Hotel,private_room,0,0,411093,16,2.0,2.0,1.0,1.0,2.0,1.0,2.0,1.0,1.0,2.0,0.0,0.0,0.0,2.0,2.0,1.0,2.0,2.0,2.0,2.0,1.0,2.0,2.0,2.0,2.0,1.0,2.0,2.0,2.0,2.0,2.0,2.0,1.0,2.0,2.0,2.0,2.0,2.0,2.0
31152796,4.0,quangninh,12,20.73862,107.03225,REGULAR,Cabin Núi M7,private_room,4,0,570589,2,2.0,2.0,1.0,2.0,1.0,2.0,2.0,2.0,1.0,1.0,0.0,0.0,0.0,2.0,1.0,1.0,2.0,2.0,0.0,0.0,1.0,1.0,2.0,2.0,2.0,2.0,2.0,2.0,2.0,2.0,2.0,2.0,2.0,2.0,2.0,2.0,2.0,2.0,2.0
47244761,0.0,quangninh,7,20.82466,106.55507,REGULAR,Phòng ngủ SAO VIỆT nhìn ra sông,private_room,0,0,513530,16,2.0,2.0,1.0,1.0,2.0,1.0,1.0,1.0,1.0,2.0,0.0,0.0,0.0,2.0,2.0,2.0,2.0,2.0,2.0,2.0,1.0,2.0,1.0,2.0,2.0,2.0,2.0,1.0,2.0,2.0,2.0,2.0,2.0,2.0,2.0,2.0,2.0,2.0,2.0
877099995765245851,0.0,quangninh,5,20.72851,107.04198,REGULAR,Seoul Hotel And Apartment - Deluxe Room 305,private_room,0,0,446737,2,1.0,2.0,1.0,1.0,2.0,1.0,2.0,1.0,1.0,2.0,0.0,0.0,0.0,2.0,2.0,1.0,2.0,2.0,0.0,2.0,1.0,2.0,2.0,1.0,2.0,2.0,2.0,2.0,2.0,2.0,2.0,2.0,2.0,2.0,2.0,2.0,2.0,2.0,2.0
795229380680477254,0.0,quangninh,17,20.81508503331013,106.8590059876442,REGULAR,"hapy homestay ấm áp, xanh sạch",private_room,0,0,570589,2,1.0,1.0,1.0,1.0,2.0,1.0,2.0,1.0,1.0,2.0,0.0,0.0,0.0,2.0,2.0,2.0,2.0,2.0,0.0,2.0,2.0,2.0,2.0,1.0,2.0,2.0,2.0,2.0,2.0,2.0,2.0,2.0,1.0,2.0,2.0,2.0,2.0,2.0,2.0
621271659040211346,0.0,quangninh,6,20.94649,107.10517,REGULAR,Phòng 2 giường thư giãn và ấm cúng tại Thành phố Hạ Long,private_room,0,0,528365,2,2.0,2.0,1.0,2.0,2.0,1.0,2.0,2.0,1.0,2.0,0.0,0.0,0.0,2.0,2.0,2.0,2.0,2.0,0.0,0.0,1.0,2.0,2.0,1.0,2.0,2.0,2.0,2.0,2.0,2.0,2.0,2.0,2.0,2.0,2.0,2.0,2.0,2.0,2.0
31127388,4.33,quangninh,14,20.73862,107.03225,REGULAR,Buồng ngủ trên Moutain M9,private_room,3,0,570589,2,2.0,2.0,1.0,2.0,1.0,2.0,2.0,2.0,1.0,1.0,0.0,0.0,0.0,2.0,1.0,1.0,2.0,2.0,0.0,0.0,1.0,1.0,2.0,2.0,2.0,2.0,2.0,2.0,2.0,2.0,2.0,2.0,2.0,2.0,2.0,2.0,2.0,2.0,2.0
24317444,0.0,quangninh,29,20.95835,107.09298,REGULAR,Phòng twin nhìn ra núi với tour tham quan thành phố Hạ Long miễn phí,private_room,2,0,472788,2,1.0,1.0,1.0,1.0,2.0,1.0,2.0,2.0,2.0,2.0,1.0,1.0,6.0,1.0,2.0,2.0,2.0,2.0,0.0,0.0,1.0,2.0,2.0,2.0,2.0,2.0,2.0,2.0,2.0,2.0,2.0,2.0,1.0,2.0,2.0,2.0,2.0,2.0,2.0
676843962964647691,0.0,quangninh,30,20.752310445478926,106.99661126226988,REGULAR,500.000đ,private_room,0,0,570589,4,2.0,1.0,1.0,1.0,1.0,2.0,2.0,1.0,1.0,2.0,0.0,0.0,0.0,2.0,2.0,2.0,2.0,2.0,0.0,2.0,1.0,1.0,2.0,2.0,2.0,2.0,2.0,2.0,2.0,2.0,2.0,2.0,1.0,2.0,2.0,2.0,2.0,2.0,2.0
29530641,0.0,quangninh,12,20.954,107.02615,REGULAR,Halong Virgo House - Room 01,private_room,0,0,570589,2,2.0,1.0,1.0,2.0,2.0,1.0,2.0,1.0,1.0,2.0,0.0,0.0,0.0,2.0,2.0,2.0,2.0,2.0,0.0,0.0,2.0,1.0,2.0,2.0,2.0,2.0,2.0,1.0,2.0,2.0,1.0,2.0,2.0,2.0,2.0,2.0,2.0,2.0,2.0
708610167640756434,0.0,quangninh,5,20.72829,107.05359,REGULAR,Phòng nghỉ riêng tại Cát Bà,private_room,0,0,404659,2,2.0,2.0,1.0,2.0,2.0,1.0,2.0,2.0,1.0,2.0,0.0,1.0,0.0,1.0,2.0,2.0,1.0,2.0,0.0,0.0,1.0,2.0,2.0,1.0,2.0,2.0,2.0,1.0,2.0,2.0,2.0,2.0,2.0,2.0,2.0,2.0,2.0,2.0,2.0
876757655443892740,0.0,quangninh,5,20.72786,107.04275,REGULAR,Seoul Hotel And Apartment - Deluxe Room 204,private_room,0,0,446737,2,1.0,2.0,1.0,1.0,2.0,1.0,2.0,2.0,1.0,2.0,0.0,0.0,0.0,2.0,2.0,1.0,2.0,2.0,0.0,2.0,1.0,2.0,2.0,1.0,2.0,2.0,2.0,1.0,2.0,2.0,2.0,2.0,2.0,2.0,2.0,2.0,2.0,2.0,2.0
44514071,0.0,quangninh,3,20.73754,107.04212,REGULAR,Phòng ba với ban công(Cát Bà Valentine),private_room,0,0,513530,2,2.0,1.0,1.0,2.0,2.0,1.0,2.0,1.0,1.0,2.0,0.0,1.0,0.0,1.0,2.0,2.0,2.0,2.0,0.0,0.0,1.0,2.0,1.0,2.0,2.0,2.0,2.0,2.0,2.0,2.0,2.0,2.0,2.0,2.0,2.0,2.0,2.0,2.0,2.0
814919985524637480,0.0,quangninh,11,20.8581258,106.698438,REGULAR,Nam Triệu (Homestay Cửa Biển),private_room,0,0,547765,3,2.0,2.0,1.0,1.0,2.0,2.0,2.0,2.0,1.0,2.0,0.0,0.0,0.0,2.0,2.0,2.0,2.0,2.0,0.0,2.0,1.0,2.0,2.0,2.0,2.0,2.0,2.0,1.0,2.0,2.0,1.0,2.0,2.0,2.0,2.0,2.0,1.0,2.0,1.0
621171264510255230,0.0,quangninh,6,20.94617,107.10508,REGULAR,Comfortable 2 beds room in Halong City,private_room,0,0,509454,2,2.0,2.0,1.0,2.0,2.0,1.0,2.0,2.0,1.0,2.0,0.0,0.0,0.0,2.0,2.0,2.0,2.0,2.0,0.0,0.0,1.0,2.0,2.0,1.0,2.0,2.0,2.0,2.0,2.0,2.0,2.0,2.0,2.0,2.0,2.0,2.0,2.0,2.0,2.0
876750408213757209,0.0,quangninh,5,20.72794,107.04114,REGULAR,Seoul Hotel And Apartment - Deluxe Room 203,private_room,0,0,446737,2,1.0,2.0,1.0,1.0,2.0,1.0,2.0,2.0,1.0,2.0,0.0,0.0,0.0,2.0,2.0,1.0,2.0,2.0,0.0,2.0,1.0,2.0,2.0,1.0,2.0,2.0,2.0,1.0,2.0,2.0,2.0,2.0,2.0,2.0,2.0,2.0,2.0,2.0,2.0
42085150,0.0,quangninh,5,20.95867,107.00687,REGULAR,Studio cao cấp Hạ Long ( HaLong Green Garden),entire_home,0,0,570589,2,2.0,1.0,2.0,2.0,2.0,2.0,1.0,1.0,2.0,2.0,0.0,0.0,0.0,2.0,2.0,2.0,2.0,2.0,2.0,2.0,2.0,2.0,2.0,2.0,2.0,2.0,2.0,2.0,2.0,2.0,2.0,2.0,1.0,2.0,2.0,2.0,2.0,2.0,2.0
29342625,0.0,quangninh,30,20.97917,107.01628,REGULAR,VƯỜN XANH HOMESTAY- TRUNG TÂM HẠ LONG,private_room,1,0,570589,3,2.0,1.0,1.0,2.0,2.0,1.0,2.0,1.0,1.0,2.0,0.0,1.0,5.0,1.0,2.0,1.0,2.0,2.0,0.0,0.0,1.0,2.0,2.0,2.0,2.0,2.0,2.0,2.0,2.0,2.0,2.0,2.0,2.0,2.0,2.0,2.0,2.0,2.0,2.0
645315979421256392,0.0,quangninh,30,20.83608,106.6783,REGULAR,Trung tâm Lặng lẽ Sạch sẽ Thân thiện Haiphong BBNC Homestay,private_room,0,0,570589,9,2.0,1.0,1.0,1.0,2.0,1.0,2.0,2.0,2.0,2.0,0.0,0.0,0.0,2.0,1.0,2.0,2.0,2.0,2.0,2.0,1.0,2.0,2.0,1.0,1.0,2.0,2.0,2.0,2.0,2.0,2.0,2.0,1.0,1.0,2.0,2.0,2.0,2.0,2.0
39781268,0.0,quangninh,30,20.86162,106.72338,REGULAR,Hami Hotel,private_room,0,0,433647,2,2.0,1.0,1.0,2.0,2.0,1.0,1.0,1.0,2.0,2.0,0.0,0.0,0.0,2.0,2.0,1.0,2.0,2.0,0.0,0.0,1.0,2.0,1.0,2.0,2.0,2.0,2.0,2.0,2.0,2.0,2.0,2.0,2.0,2.0,2.0,2.0,2.0,2.0,2.0
787271907450500650,0.0,quangninh,8,20.86029,106.68131,REGULAR,Phòng dành cho 1-2 người 301 Hoàng Văn Thụ,entire_home,0,0,513530,2,2.0,1.0,1.0,2.0,2.0,1.0,2.0,2.0,1.0,2.0,0.0,0.0,0.0,2.0,2.0,2.0,2.0,2.0,0.0,0.0,1.0,2.0,2.0,1.0,2.0,2.0,2.0,2.0,2.0,2.0,2.0,2.0,2.0,2.0,2.0,2.0,2.0,2.0,2.0
876757539490694321,0.0,quangninh,4,20.72847,107.04258,REGULAR,Seoul Hotel And Apartment - Deluxe Room 205,private_room,0,0,446737,2,1.0,2.0,1.0,1.0,2.0,1.0,2.0,2.0,1.0,2.0,0.0,0.0,0.0,2.0,2.0,1.0,2.0,2.0,0.0,2.0,1.0,2.0,2.0,1.0,2.0,2.0,2.0,1.0,2.0,2.0,2.0,2.0,2.0,2.0,2.0,2.0,2.0,2.0,2.0
35473435,0.0,quangninh,5,20.94888,107.16947,REGULAR,Ruby Hạ Long Homestay - Trải nghiệm thực sự!,private_room,0,0,527192,16,1.0,1.0,1.0,2.0,1.0,2.0,2.0,1.0,1.0,2.0,0.0,0.0,0.0,2.0,2.0,2.0,2.0,2.0,0.0,0.0,1.0,2.0,2.0,2.0,2.0,2.0,2.0,1.0,2.0,2.0,2.0,2.0,2.0,2.0,2.0,2.0,2.0,2.0,2.0
40183593,0.0,quangninh,30,20.86029,106.72302,REGULAR,KHÁCH SẠN HAMI,private_room,0,0,433647,2,2.0,1.0,1.0,2.0,2.0,1.0,1.0,1.0,2.0,2.0,0.0,0.0,0.0,2.0,2.0,1.0,2.0,2.0,0.0,0.0,1.0,2.0,1.0,2.0,2.0,2.0,2.0,2.0,2.0,2.0,2.0,2.0,2.0,2.0,2.0,2.0,2.0,2.0,2.0
41160526,0.0,quangninh,11,20.75165,106.99359,REGULAR,Green Homestay room 1,private_room,0,0,539546,2,2.0,2.0,1.0,2.0,2.0,2.0,2.0,2.0,1.0,2.0,0.0,1.0,0.0,1.0,2.0,1.0,2.0,1.0,2.0,0.0,1.0,2.0,2.0,2.0,2.0,2.0,2.0,1.0,2.0,2.0,2.0,1.0,2.0,2.0,2.0,2.0,2.0,2.0,2.0
33663586,0.0,quangninh,16,20.84683,106.71377,REGULAR,TBD villa,private_room,0,0,456471,2,2.0,1.0,1.0,2.0,2.0,1.0,2.0,2.0,1.0,2.0,0.0,1.0,0.0,1.0,2.0,2.0,2.0,2.0,0.0,0.0,2.0,2.0,2.0,2.0,2.0,2.0,2.0,2.0,2.0,2.0,2.0,2.0,2.0,2.0,2.0,2.0,2.0,2.0,2.0
585039311861165063,0.0,quangninh,3,20.918142,106.991745,REGULAR,Phòng tiêu chuẩn 2 giường đơn,private_room,0,0,570589,2,1.0,1.0,1.0,1.0,2.0,1.0,2.0,2.0,2.0,2.0,0.0,0.0,0.0,2.0,2.0,2.0,2.0,2.0,0.0,0.0,1.0,1.0,2.0,1.0,2.0,2.0,2.0,2.0,2.0,2.0,2.0,2.0,2.0,2.0,2.0,2.0,2.0,2.0,2.0
708622009669172747,0.0,quangninh,5,20.72747,107.0518,REGULAR,Phòng nghỉ trung tâm Cát Bà,private_room,0,0,404659,2,2.0,2.0,1.0,2.0,2.0,1.0,2.0,2.0,1.0,2.0,0.0,1.0,0.0,1.0,2.0,2.0,1.0,2.0,0.0,0.0,1.0,2.0,2.0,1.0,2.0,2.0,2.0,1.0,2.0,2.0,2.0,2.0,2.0,2.0,2.0,2.0,2.0,2.0,2.0
11605656,0.0,quangninh,6,20.94885,107.07696,REGULAR,Không gian riêng ĐẶC biệt @ Sống cùng gia đình bản xứ thân thiện,private_room,1,0,410824,3,2.0,1.0,1.0,2.0,2.0,1.0,2.0,1.0,1.0,2.0,0.0,1.0,7.0,1.0,2.0,2.0,2.0,2.0,0.0,0.0,2.0,2.0,1.0,2.0,2.0,2.0,2.0,2.0,2.0,2.0,2.0,2.0,2.0,2.0,2.0,2.0,2.0,2.0,2.0
49218794,0.0,quangninh,24,20.84968,106.69103,REGULAR,Nhà khách Hoàng Tuyết - Phòng đẹp sang trọng,private_room,0,0,490706,2,2.0,2.0,1.0,1.0,2.0,1.0,2.0,2.0,1.0,2.0,0.0,1.0,0.0,1.0,2.0,2.0,2.0,2.0,0.0,0.0,2.0,2.0,2.0,2.0,2.0,2.0,2.0,1.0,2.0,2.0,2.0,2.0,2.0,2.0,2.0,2.0,2.0,2.0,2.0
755177823139305894,0.0,quangninh,6,20.8273255,106.6845602,REGULAR,"Nhà nghỉ giá rẻ hấp dẫn thoáng ,yên tĩnh
sạch sẽ",private_room,0,0,456471,4,2.0,2.0,1.0,1.0,2.0,1.0,2.0,1.0,1.0,2.0,0.0,0.0,0.0,2.0,2.0,2.0,2.0,2.0,2.0,2.0,1.0,2.0,2.0,1.0,2.0,2.0,2.0,2.0,2.0,2.0,2.0,2.0,2.0,2.0,2.0,2.0,2.0,2.0,2.0
868828370647498578,0.0,quangninh,21,20.846966326953556,106.70894096416689,REGULAR,Khách Sạn Nam Sơn,private_room,0,0,547765,3,2.0,2.0,1.0,1.0,2.0,1.0,2.0,2.0,1.0,2.0,0.0,0.0,0.0,2.0,2.0,1.0,2.0,2.0,0.0,2.0,1.0,2.0,2.0,1.0,2.0,2.0,2.0,1.0,2.0,2.0,2.0,2.0,2.0,2.0,2.0,2.0,2.0,2.0,2.0
32478905,0.0,quangninh,6,20.82359,106.6898,REGULAR,Hai phong Apartment 4,private_room,0,0,570589,2,2.0,1.0,1.0,2.0,2.0,1.0,1.0,2.0,1.0,2.0,0.0,1.0,0.0,2.0,2.0,2.0,2.0,2.0,0.0,0.0,1.0,2.0,2.0,2.0,2.0,2.0,2.0,2.0,0.0,2.0,2.0,2.0,1.0,2.0,2.0,2.0,2.0,2.0,2.0
49218744,0.0,quangninh,21,20.84779,106.69061,REGULAR,Nhà khách Hoàng Tuyết - Star Luxury Room,private_room,0,0,445059,2,2.0,2.0,1.0,1.0,2.0,1.0,2.0,2.0,1.0,2.0,0.0,1.0,0.0,1.0,2.0,2.0,2.0,2.0,0.0,0.0,2.0,2.0,2.0,2.0,2.0,2.0,2.0,1.0,2.0,2.0,2.0,2.0,2.0,2.0,2.0,2.0,2.0,2.0,2.0
620574278937960589,0.0,quangninh,6,20.94816,107.10652,REGULAR,Comfortable 2 beds room in Ha Long City,private_room,0,0,509454,2,2.0,2.0,1.0,2.0,2.0,1.0,2.0,2.0,1.0,2.0,0.0,0.0,0.0,2.0,2.0,2.0,2.0,2.0,0.0,0.0,1.0,2.0,2.0,1.0,2.0,2.0,2.0,2.0,2.0,2.0,2.0,2.0,2.0,2.0,2.0,2.0,2.0,2.0,2.0
48815943,0.0,quangninh,21,20.8497,106.69085,REGULAR,Nhà khách Hoàng Tuyết - Star Luxury Room,private_room,0,0,445059,2,2.0,2.0,1.0,1.0,2.0,1.0,2.0,2.0,1.0,2.0,0.0,1.0,0.0,1.0,2.0,2.0,2.0,2.0,0.0,0.0,2.0,2.0,2.0,2.0,2.0,2.0,2.0,1.0,2.0,2.0,2.0,2.0,2.0,2.0,2.0,2.0,2.0,2.0,2.0
49218862,0.0,quangninh,24,20.84792,106.69072,REGULAR,Hoang Tuyet Guest House - Luxury Beauty Room,private_room,0,0,490706,2,2.0,2.0,1.0,1.0,2.0,1.0,2.0,2.0,1.0,2.0,0.0,1.0,0.0,1.0,2.0,2.0,2.0,2.0,0.0,0.0,2.0,2.0,2.0,2.0,2.0,2.0,2.0,1.0,2.0,2.0,2.0,2.0,2.0,2.0,2.0,2.0,2.0,2.0,2.0
41724433,0.0,quangninh,4,20.79495,106.99025,REGULAR,phòng thành phố- 701,private_room,0,0,513530,2,2.0,2.0,1.0,2.0,2.0,1.0,2.0,1.0,1.0,2.0,0.0,0.0,0.0,2.0,2.0,2.0,2.0,2.0,0.0,2.0,1.0,2.0,1.0,2.0,2.0,2.0,2.0,1.0,2.0,2.0,2.0,2.0,2.0,2.0,2.0,2.0,2.0,2.0,2.0
49218699,0.0,quangninh,20,20.84966,106.68892,REGULAR,Nhà khách Hoàng Tuyết - Star Luxury Room,private_room,0,0,445059,2,2.0,2.0,1.0,1.0,2.0,1.0,2.0,2.0,1.0,2.0,0.0,0.0,0.0,2.0,2.0,2.0,2.0,2.0,0.0,0.0,2.0,2.0,2.0,2.0,2.0,2.0,2.0,1.0,2.0,2.0,2.0,2.0,2.0,2.0,2.0,2.0,2.0,2.0,2.0
621173062879376795,0.0,quangninh,6,20.94771,107.10682,REGULAR,Phòng 2 giường thoải mái tại Thành phố Hạ Long,private_room,0,0,509454,2,2.0,2.0,1.0,2.0,2.0,1.0,2.0,2.0,1.0,2.0,0.0,0.0,0.0,2.0,2.0,2.0,2.0,2.0,0.0,0.0,1.0,2.0,2.0,1.0,2.0,2.0,2.0,2.0,2.0,2.0,2.0,2.0,2.0,2.0,2.0,2.0,2.0,2.0,2.0
41102602,0.0,quangninh,3,20.80025,106.99922,REGULAR,khách sạn biển - ganesh,private_room,0,0,539546,2,2.0,2.0,1.0,2.0,2.0,1.0,2.0,1.0,1.0,2.0,0.0,0.0,0.0,2.0,2.0,2.0,2.0,2.0,0.0,0.0,2.0,2.0,2.0,2.0,2.0,2.0,2.0,1.0,2.0,2.0,2.0,2.0,2.0,2.0,1.0,2.0,2.0,2.0,2.0
49218895,0.0,quangninh,24,20.84903,106.69014,REGULAR,Hoang Tuyet Guest House - Luxury Beauty Room,private_room,0,0,490706,2,2.0,2.0,1.0,1.0,2.0,1.0,2.0,2.0,1.0,2.0,0.0,0.0,0.0,2.0,2.0,2.0,2.0,2.0,0.0,0.0,2.0,2.0,2.0,2.0,2.0,2.0,2.0,1.0,2.0,2.0,2.0,2.0,2.0,2.0,2.0,2.0,2.0,2.0,2.0
620584381285634565,0.0,quangninh,6,20.9462,107.10671,REGULAR,Phòng 2 giường thoải mái tại Thành phố Hạ Long,private_room,0,0,509454,2,2.0,2.0,1.0,2.0,2.0,1.0,2.0,2.0,1.0,2.0,0.0,0.0,0.0,2.0,2.0,2.0,2.0,2.0,0.0,0.0,1.0,2.0,2.0,1.0,2.0,2.0,2.0,2.0,2.0,2.0,2.0,2.0,2.0,2.0,2.0,2.0,2.0,2.0,2.0
621269964782851370,0.0,quangninh,6,20.94745,107.10569,REGULAR,Comfortable 2 beds room in Ha Long City,private_room,0,0,509454,2,2.0,2.0,1.0,2.0,2.0,1.0,2.0,2.0,1.0,2.0,0.0,0.0,0.0,2.0,2.0,2.0,2.0,2.0,0.0,0.0,1.0,2.0,2.0,1.0,2.0,2.0,2.0,2.0,2.0,2.0,2.0,2.0,2.0,2.0,2.0,2.0,2.0,2.0,2.0
620579808494039331,0.0,quangninh,6,20.94691,107.10639,REGULAR,Comfortable 2 beds room in Ha Long City,private_room,0,0,509454,2,2.0,2.0,1.0,2.0,2.0,1.0,2.0,2.0,1.0,2.0,0.0,0.0,0.0,2.0,2.0,2.0,2.0,2.0,0.0,0.0,1.0,2.0,2.0,1.0,2.0,2.0,2.0,2.0,2.0,2.0,2.0,2.0,2.0,2.0,2.0,2.0,2.0,2.0,2.0
621267951283480147,0.0,quangninh,6,20.94772,107.10478,REGULAR,Comfortable 2 beds room in Ha Long City,private_room,0,0,528365,2,2.0,2.0,1.0,2.0,2.0,1.0,2.0,2.0,1.0,2.0,0.0,0.0,0.0,2.0,2.0,2.0,2.0,2.0,0.0,0.0,1.0,2.0,2.0,1.0,2.0,2.0,2.0,2.0,2.0,2.0,2.0,2.0,2.0,2.0,2.0,2.0,2.0,2.0,2.0
45172571,0.0,quangninh,8,21.05713,106.69474,REGULAR,cảm thấy nơi đáng yêu này như là nhà của chính bạn,entire_home,0,0,539519,4,2.0,1.0,1.0,2.0,1.0,1.0,2.0,1.0,1.0,2.0,0.0,0.0,0.0,2.0,2.0,2.0,2.0,2.0,2.0,2.0,1.0,2.0,1.0,2.0,2.0,2.0,2.0,1.0,2.0,2.0,2.0,2.0,1.0,2.0,2.0,2.0,2.0,2.0,2.0
49183305,0.0,quangninh,1,20.84931,106.69062,REGULAR,Nhà khách Hoàng Tuyết - Phòng đẹp sang trọng,private_room,0,0,490706,2,2.0,2.0,1.0,1.0,2.0,1.0,2.0,2.0,1.0,2.0,0.0,1.0,0.0,1.0,2.0,2.0,2.0,2.0,0.0,0.0,2.0,2.0,2.0,2.0,2.0,2.0,2.0,1.0,2.0,2.0,2.0,2.0,2.0,2.0,2.0,2.0,2.0,2.0,2.0
44508734,0.0,quangninh,4,20.94668,107.03557,REGULAR,Lug Home Hạ Long,private_room,0,0,517965,2,1.0,1.0,1.0,2.0,2.0,1.0,2.0,1.0,1.0,2.0,0.0,0.0,0.0,2.0,2.0,2.0,2.0,2.0,0.0,0.0,2.0,2.0,2.0,2.0,2.0,2.0,2.0,2.0,2.0,2.0,1.0,2.0,2.0,2.0,1.0,2.0,2.0,2.0,2.0
48762245,0.0,quangninh,24,20.84873,106.68993,REGULAR,Nhà khách Hoàng Tuyết - Phòng đẹp sang trọng,private_room,0,0,490706,2,2.0,2.0,1.0,1.0,2.0,1.0,2.0,2.0,1.0,2.0,0.0,1.0,0.0,1.0,2.0,2.0,2.0,2.0,0.0,0.0,2.0,2.0,2.0,2.0,2.0,2.0,2.0,1.0,2.0,2.0,2.0,2.0,2.0,2.0,2.0,2.0,2.0,2.0,2.0
36152608,0.0,quangninh,5,20.73674,106.70784,REGULAR,LÀNG RỪNG GIÀ NHIỆT ĐỚI,entire_home,0,0,456471,4,2.0,1.0,2.0,2.0,2.0,1.0,2.0,1.0,1.0,2.0,0.0,0.0,0.0,2.0,2.0,2.0,2.0,2.0,0.0,0.0,2.0,2.0,2.0,2.0,2.0,2.0,2.0,1.0,2.0,2.0,2.0,2.0,2.0,2.0,1.0,2.0,2.0,2.0,2.0
23123627,0.0,quangninh,5,20.97833,107.01904,REGULAR,Nhà rộng rãi ở vịnh halong,entire_home,0,0,513530,10,2.0,1.0,2.0,2.0,2.0,2.0,2.0,2.0,2.0,2.0,0.0,0.0,0.0,2.0,2.0,2.0,2.0,2.0,0.0,2.0,1.0,2.0,2.0,2.0,2.0,2.0,2.0,2.0,2.0,2.0,2.0,2.0,2.0,2.0,2.0,2.0,2.0,2.0,2.0
26846974,0.0,quangninh,7,20.83671,106.70461,REGULAR,海防-中国人家,private_room,0,0,481699,2,2.0,1.0,1.0,2.0,2.0,2.0,2.0,1.0,1.0,2.0,0.0,1.0,0.0,2.0,2.0,2.0,2.0,2.0,0.0,0.0,2.0,2.0,2.0,2.0,2.0,2.0,2.0,2.0,0.0,2.0,2.0,2.0,2.0,2.0,2.0,2.0,2.0,2.0,2.0
51054931,0.0,quangninh,5,20.97768,107.01949,REGULAR,Nhà cho thuê,entire_home,0,0,570589,10,2.0,1.0,2.0,1.0,2.0,2.0,2.0,2.0,2.0,2.0,0.0,0.0,0.0,2.0,2.0,1.0,2.0,2.0,0.0,2.0,1.0,2.0,2.0,2.0,2.0,2.0,2.0,2.0,2.0,2.0,2.0,2.0,2.0,2.0,2.0,2.0,2.0,2.0,2.0
