room_id,rating,city,contextualPicturesCount,lat,long,listingObjType,name,roomTypeCategory,reviewCount,isSuperHost,isVerified,yearHosting,canInstantBook,price,maxGuestCapacity,SYSTEM_LOCK_ON_DOOR,SYSTEM_COOKING_BASICS,SYSTEM_WI_FI,SYSTEM_WORKSPACE,SYSTEM_MAPS_CAR_RENTAL,SYSTEM_PETS,SYSTEM_TV,SYSTEM_WASHER,SYSTEM_NO_DETECTOR_CO2,SYSTEM_NO_DETECTOR_SMOKE,SYSTEM_SNOWFLAKE,SYSTEM_HAIRDRYER,SYSTEM_DRYER,SYSTEM_SURVEILLANCE,SYSTEM_VIEW_CITY,SYSTEM_JACUZZI,SYSTEM_NO_LOCK_ON_DOOR,SYSTEM_BEACH,SYSTEM_POOL,SYSTEM_FIREPIT,SYSTEM_ELEVATOR,SYSTEM_PATIO_BALCONY,SYSTEM_SMOKING_ALLOWED,SYSTEM_FIREPLACE,SYSTEM_FLOWER,SYSTEM_VIEW_MOUNTAIN,SYSTEM_REFRIGERATOR,SYSTEM_BATHTUB,SYSTEM_VIEW_OCEAN,SYSTEM_BREAKFAST,SYSTEM_LUGGAGE_DROP,SYSTEM_CALENDAR,SYSTEM_MICROWAVE,SYSTEM_GYM,SYSTEM_SKI,SYSTEM_MAPS_RESORT
18715959,4.65,quangninh,9,20.72513,107.05226,REGULAR,Phòng trên núi (Cool),private_room,98,1.0,1.0,6.0,0,365177,2,1.0,1.0,1.0,1.0,1.0,1.0,1.0,1.0,0.0,0.0,2.0,2.0,2.0,2.0,2.0,2.0,2.0,2.0,2.0,2.0,2.0,2.0,2.0,2.0,2.0,2.0,2.0,2.0,2.0,2.0,2.0,2.0,2.0,2.0,2.0,2.0
17045836,4.8,quangninh,10,20.83587,106.70142,REGULAR,"Phòng riêng, khu vực quốc tế, gần sân bay",private_room,44,0.0,1.0,5.0,0,269773,4,1.0,1.0,1.0,2.0,1.0,1.0,2.0,1.0,0.0,0.0,1.0,1.0,2.0,2.0,2.0,2.0,2.0,2.0,2.0,2.0,2.0,2.0,2.0,2.0,2.0,2.0,2.0,2.0,2.0,2.0,2.0,2.0,2.0,2.0,2.0,2.0
932316866758245260,0.0,quangninh,18,20.8503137,106.6752307,REGULAR,GM Homestay- Your second Home 202,private_room,0,0.0,1.0,0.0,0,360009,3,1.0,1.0,1.0,1.0,1.0,2.0,2.0,1.0,0.0,0.0,2.0,2.0,1.0,1.0,2.0,2.0,2.0,2.0,2.0,2.0,2.0,2.0,2.0,2.0,2.0,2.0,2.0,2.0,2.0,2.0,2.0,2.0,2.0,2.0,2.0,2.0
930889980451095123,0.0,quangninh,18,20.850609473846724,106.67488201282809,REGULAR,GM Homestay : Your Second Home 201,private_room,0,0.0,1.0,0.0,0,318336,3,1.0,1.0,1.0,1.0,1.0,2.0,2.0,1.0,0.0,0.0,2.0,2.0,2.0,1.0,1.0,2.0,2.0,2.0,2.0,2.0,2.0,2.0,2.0,2.0,2.0,2.0,2.0,2.0,2.0,2.0,2.0,2.0,2.0,2.0,2.0,2.0
688275793706514315,4.88,quangninh,21,20.958513151728248,107.05127108842134,REGULAR,"Nhà tạo mẫu phòng riêng, phòng sạch sẽ và giá rẻ, ngẫu nhiên",private_room,34,0.0,0.0,0.0,0,342353,2,2.0,1.0,1.0,2.0,2.0,1.0,1.0,2.0,0.0,0.0,1.0,1.0,2.0,2.0,2.0,2.0,2.0,2.0,2.0,2.0,2.0,2.0,2.0,2.0,2.0,2.0,2.0,2.0,2.0,2.0,2.0,2.0,2.0,2.0,2.0,2.0
872783277087143270,5.0,quangninh,15,20.86604,106.6734,REGULAR,Central cozy Exclusive room,private_room,3,1.0,1.0,0.16666666666666666,0,270644,2,2.0,1.0,1.0,1.0,1.0,2.0,1.0,1.0,0.0,0.0,2.0,2.0,2.0,2.0,2.0,1.0,0.0,2.0,2.0,2.0,2.0,2.0,2.0,2.0,2.0,2.0,2.0,2.0,2.0,2.0,2.0,2.0,2.0,2.0,2.0,2.0
888179817439018334,0.0,quangninh,5,20.85477,106.6903,REGULAR,Cozy room with a workspace,private_room,0,0.0,1.0,0.0,0,214541,2,1.0,1.0,1.0,1.0,2.0,2.0,2.0,1.0,0.0,0.0,1.0,2.0,2.0,2.0,2.0,2.0,2.0,2.0,2.0,2.0,2.0,2.0,2.0,2.0,2.0,2.0,2.0,2.0,2.0,2.0,2.0,2.0,2.0,2.0,2.0,2.0
883154854150171750,0.0,quangninh,7,20.85672,106.69044,REGULAR,Private relaxing room,private_room,2,0.0,1.0,0.25,0,285294,2,1.0,1.0,2.0,2.0,2.0,2.0,2.0,1.0,0.0,0.0,1.0,2.0,2.0,2.0,2.0,2.0,2.0,2.0,2.0,2.0,2.0,2.0,2.0,2.0,2.0,2.0,2.0,2.0,2.0,2.0,2.0,2.0,2.0,2.0,2.0,2.0
769261949815158466,0.0,quangninh,6,20.948202674784177,107.07407264047853,REGULAR,Homestay ngày 5 tháng 5,shared_room,0,0.0,0.0,0.0,0,275024,8,2.0,1.0,1.0,1.0,1.0,2.0,2.0,1.0,0.0,0.0,1.0,2.0,2.0,1.0,2.0,2.0,2.0,1.0,2.0,2.0,2.0,2.0,2.0,2.0,2.0,2.0,2.0,2.0,2.0,2.0,2.0,2.0,2.0,2.0,2.0,2.0
891901613128371597,0.0,quangninh,29,20.74965,106.99755,REGULAR,Bed in dormitory-CatBa SOL Beach,shared_room,0,0.0,0.0,0.0,0,268177,16,2.0,2.0,1.0,1.0,1.0,2.0,2.0,2.0,0.0,0.0,1.0,2.0,1.0,1.0,2.0,2.0,2.0,1.0,1.0,2.0,2.0,2.0,2.0,2.0,2.0,2.0,2.0,2.0,2.0,2.0,2.0,2.0,2.0,2.0,2.0,2.0
883765589019332011,0.0,quangninh,30,20.956263866462077,107.00447056442499,REGULAR,Halong And Me Deluxe Stay,private_room,0,0.0,0.0,0.0,0,356883,6,2.0,1.0,1.0,1.0,1.0,2.0,1.0,1.0,0.0,2.0,1.0,2.0,2.0,2.0,2.0,2.0,2.0,1.0,2.0,1.0,2.0,2.0,2.0,2.0,2.0,2.0,2.0,2.0,2.0,2.0,2.0,2.0,2.0,2.0,2.0,2.0
39428399,5.0,quangninh,21,20.95037,107.09922,REGULAR,Bữa sáng miễn phí - Giường tuyệt vời trong phòng ký túc xá 8 giường,shared_room,3,0.0,0.0,0.0,0,276377,8,2.0,2.0,1.0,2.0,1.0,2.0,2.0,2.0,0.0,0.0,1.0,2.0,2.0,2.0,2.0,2.0,2.0,2.0,2.0,2.0,1.0,1.0,2.0,2.0,2.0,2.0,2.0,2.0,2.0,2.0,2.0,2.0,2.0,2.0,2.0,2.0
937522611010840529,0.0,quangninh,22,20.837486861494302,106.70194396641533,REGULAR,Phòng Đơn 2 người Holiday,private_room,0,0.0,0.0,0.0,0,365177,2,2.0,2.0,1.0,1.0,1.0,1.0,1.0,2.0,2.0,2.0,1.0,2.0,2.0,2.0,2.0,2.0,2.0,2.0,2.0,2.0,2.0,2.0,1.0,2.0,2.0,2.0,2.0,2.0,2.0,2.0,2.0,2.0,2.0,2.0,2.0,2.0
31097843,4.21,quangninh,23,20.84682,106.6538,REGULAR,"Phòng đôi nhà nghỉ Bảo Minh, thành phố Hải Phòng",private_room,14,0.0,0.0,0.0,0,296706,2,2.0,2.0,1.0,2.0,1.0,2.0,1.0,2.0,0.0,0.0,1.0,1.0,2.0,2.0,2.0,2.0,2.0,2.0,2.0,2.0,1.0,2.0,1.0,2.0,2.0,2.0,2.0,2.0,2.0,2.0,2.0,2.0,2.0,2.0,2.0,2.0
24289651,0.0,quangninh,30,20.95765,107.09193,REGULAR,Wow Ocean Trang trí giường đơn ngay trung tâm Hạ Long,shared_room,0,0.0,0.0,0.0,0,236394,8,2.0,1.0,1.0,1.0,1.0,2.0,2.0,1.0,0.0,0.0,1.0,2.0,2.0,2.0,2.0,1.0,2.0,2.0,2.0,2.0,2.0,2.0,2.0,1.0,2.0,2.0,2.0,2.0,2.0,2.0,2.0,2.0,2.0,2.0,2.0,2.0
751057851176098706,0.0,quangninh,7,20.9193942,106.8553702,REGULAR,"Ngôi biệt thự độc lập, có nhiều cây xanh, sạch sẽ",private_room,0,0.0,1.0,0.0,0,399412,1,2.0,1.0,1.0,1.0,1.0,2.0,2.0,2.0,0.0,0.0,2.0,2.0,2.0,1.0,1.0,2.0,0.0,2.0,2.0,2.0,2.0,2.0,2.0,2.0,1.0,2.0,2.0,2.0,2.0,2.0,2.0,2.0,2.0,2.0,2.0,2.0
747654587923579717,0.0,quangninh,13,20.724482,107.053356,REGULAR,Khách sạn giá rẻ Coffee Scent với bữa sáng,private_room,0,0.0,0.0,0.0,0,399412,2,2.0,2.0,1.0,1.0,1.0,2.0,1.0,2.0,0.0,2.0,1.0,2.0,2.0,1.0,2.0,2.0,2.0,2.0,2.0,2.0,2.0,2.0,2.0,2.0,2.0,1.0,2.0,2.0,2.0,2.0,2.0,2.0,2.0,2.0,2.0,2.0
883685685344995589,0.0,quangninh,30,20.73333,107.04469,REGULAR,Phòng giá rẻ.Phục vụ chu đáo,entire_home,0,0.0,0.0,0.0,0,255624,16,2.0,1.0,1.0,1.0,1.0,1.0,1.0,1.0,0.0,0.0,2.0,2.0,2.0,1.0,2.0,2.0,2.0,2.0,2.0,2.0,2.0,2.0,2.0,2.0,2.0,2.0,2.0,2.0,2.0,2.0,2.0,2.0,2.0,2.0,2.0,2.0
932339911292845445,0.0,quangninh,21,20.8503137,106.6752307,REGULAR,GM Homestay- Your second Home 302,private_room,0,0.0,1.0,0.0,0,360646,3,1.0,1.0,1.0,1.0,1.0,2.0,2.0,1.0,0.0,0.0,2.0,2.0,1.0,1.0,2.0,2.0,2.0,2.0,2.0,2.0,2.0,2.0,2.0,2.0,2.0,2.0,2.0,2.0,2.0,2.0,2.0,2.0,2.0,2.0,2.0,2.0
874445693790678735,0.0,quangninh,11,20.865135979254607,106.6731121391058,REGULAR,Central Single Bed,private_room,1,1.0,1.0,0.16666666666666666,0,240104,2,1.0,2.0,1.0,1.0,1.0,2.0,2.0,2.0,0.0,0.0,1.0,2.0,2.0,2.0,2.0,2.0,2.0,2.0,2.0,2.0,2.0,2.0,2.0,2.0,2.0,2.0,2.0,2.0,2.0,2.0,2.0,2.0,2.0,2.0,2.0,2.0
932334659366584401,0.0,quangninh,18,20.8503137,106.6752307,REGULAR,GM Homestay-Your second Home 301,private_room,0,0.0,0.0,0.0,0,366255,3,2.0,1.0,1.0,1.0,1.0,2.0,2.0,1.0,0.0,0.0,1.0,2.0,1.0,1.0,2.0,2.0,2.0,2.0,2.0,2.0,2.0,2.0,2.0,2.0,2.0,2.0,2.0,2.0,2.0,2.0,2.0,2.0,2.0,2.0,2.0,2.0
874437361328119566,0.0,quangninh,8,20.8648763,106.6731829,REGULAR,Cozy central Flex room 3,private_room,0,1.0,1.0,0.0,0,292141,2,1.0,2.0,1.0,1.0,1.0,2.0,1.0,2.0,0.0,0.0,1.0,2.0,2.0,2.0,2.0,2.0,2.0,2.0,2.0,2.0,2.0,2.0,2.0,2.0,2.0,2.0,2.0,2.0,2.0,2.0,2.0,2.0,2.0,2.0,2.0,2.0
24163863,4.57,quangninh,9,20.83587,106.70142,REGULAR,"Phòng riêng, khu vực quốc tế, gần sân bay",private_room,14,0.0,1.0,5.0,0,269773,4,1.0,1.0,1.0,2.0,1.0,1.0,2.0,1.0,0.0,0.0,1.0,2.0,1.0,2.0,2.0,2.0,2.0,2.0,2.0,2.0,2.0,2.0,2.0,2.0,2.0,2.0,2.0,2.0,2.0,2.0,2.0,2.0,2.0,2.0,2.0,2.0
708601795259052853,0.0,quangninh,5,20.72839,107.05209,REGULAR,Phòng nghỉ riêng tại Cát Bà,private_room,2,0.0,1.0,7.0,0,303482,4,1.0,2.0,1.0,2.0,1.0,2.0,1.0,2.0,0.0,0.0,1.0,1.0,2.0,1.0,2.0,2.0,2.0,2.0,2.0,2.0,2.0,2.0,2.0,2.0,2.0,2.0,1.0,2.0,2.0,2.0,2.0,2.0,2.0,2.0,2.0,2.0
785944916211614464,0.0,quangninh,19,20.8338972,106.7067383,REGULAR,Khách sạn giá rẻ Hải Phòng #1 * GIƯỜNG CỠ QUEEN *,shared_room,0,0.0,0.0,0.0,0,274730,1,2.0,1.0,1.0,2.0,2.0,2.0,1.0,1.0,2.0,2.0,1.0,1.0,2.0,1.0,2.0,2.0,2.0,2.0,2.0,2.0,2.0,1.0,2.0,2.0,2.0,2.0,1.0,1.0,2.0,2.0,2.0,2.0,2.0,2.0,2.0,2.0
22911230,4.92,quangninh,23,20.72518,107.05222,REGULAR,Cát Bà Lucky Family Hotel,private_room,12,0.0,0.0,0.0,0,399412,2,2.0,2.0,1.0,2.0,1.0,1.0,1.0,1.0,0.0,0.0,1.0,2.0,1.0,1.0,2.0,2.0,2.0,2.0,2.0,2.0,2.0,2.0,2.0,2.0,2.0,2.0,2.0,2.0,2.0,2.0,2.0,2.0,2.0,2.0,2.0,2.0
704195690168297633,4.88,quangninh,21,20.95759,107.05056,REGULAR,"Phòng đẹp, sạch sẽ ở trung tâm Hạ Long (phòng ngẫu nhiên)",private_room,16,0.0,0.0,0.0,0,301367,2,2.0,1.0,1.0,2.0,2.0,1.0,1.0,2.0,0.0,0.0,1.0,1.0,2.0,2.0,2.0,2.0,2.0,2.0,2.0,2.0,2.0,2.0,2.0,2.0,2.0,2.0,2.0,2.0,2.0,2.0,2.0,2.0,2.0,2.0,2.0,2.0
699960686661063153,0.0,quangninh,25,21.015446303042626,107.25994057953358,REGULAR,"Phòng ngủ riêng, bề mặt với khung cảnh ngoài trời rộng lớn",private_room,0,0.0,1.0,0.0,0,285294,5,2.0,1.0,1.0,1.0,1.0,2.0,2.0,2.0,0.0,0.0,2.0,2.0,2.0,2.0,2.0,2.0,0.0,1.0,2.0,2.0,2.0,2.0,2.0,2.0,1.0,2.0,2.0,2.0,1.0,2.0,2.0,2.0,2.0,2.0,2.0,2.0
867879274009478733,0.0,quangninh,5,20.69651,106.79248,REGULAR,phòng trọ bình dân khu I Đồ Sơn,shared_room,0,0.0,0.0,0.0,0,214146,16,2.0,2.0,1.0,1.0,1.0,2.0,2.0,2.0,0.0,0.0,1.0,2.0,2.0,1.0,2.0,2.0,2.0,2.0,2.0,2.0,2.0,2.0,2.0,2.0,2.0,2.0,2.0,2.0,2.0,2.0,2.0,2.0,2.0,2.0,2.0,2.0
24316231,0.0,quangninh,26,20.95816,107.09155,REGULAR,Giường tầng dễ thương tại homestay trên vịnh Hạ Long - tầm nhìn đẹp,shared_room,0,0.0,0.0,0.0,0,236394,8,2.0,1.0,1.0,1.0,1.0,2.0,1.0,1.0,0.0,0.0,1.0,2.0,2.0,2.0,2.0,1.0,2.0,2.0,2.0,2.0,2.0,2.0,2.0,2.0,2.0,2.0,2.0,2.0,2.0,2.0,2.0,2.0,2.0,2.0,2.0,2.0
613227739261768457,0.0,quangninh,13,20.95425,107.04522,REGULAR,Tiêu chuẩn - Hướng nhìn ra thành phố,shared_room,0,0.0,0.0,0.0,0,385147,2,2.0,1.0,1.0,2.0,1.0,2.0,1.0,1.0,0.0,2.0,1.0,1.0,2.0,1.0,2.0,2.0,2.0,2.0,2.0,2.0,2.0,2.0,2.0,2.0,1.0,2.0,2.0,2.0,2.0,2.0,2.0,2.0,2.0,2.0,2.0,2.0
806683025143127570,0.0,quangninh,23,20.95706,107.00692,REGULAR,Ký túc xá Vịnh Hạ Long,shared_room,0,0.0,0.0,0.0,0,270773,4,2.0,1.0,1.0,1.0,2.0,2.0,1.0,1.0,0.0,2.0,1.0,2.0,2.0,1.0,2.0,2.0,2.0,1.0,1.0,2.0,2.0,2.0,2.0,2.0,2.0,2.0,2.0,2.0,2.0,2.0,2.0,2.0,2.0,2.0,2.0,2.0
22644846,4.0,quangninh,30,20.97652,107.15436,REGULAR,Sống cùng gia đình bản xứ Ruby Hạ Long,hotel_room,12,0.0,0.0,0.0,0,261444,16,2.0,1.0,1.0,2.0,1.0,2.0,2.0,1.0,0.0,0.0,1.0,1.0,2.0,2.0,2.0,2.0,2.0,1.0,2.0,2.0,2.0,2.0,2.0,2.0,2.0,2.0,2.0,2.0,2.0,1.0,2.0,2.0,2.0,2.0,2.0,2.0
861271123177426403,0.0,quangninh,23,20.76729218455031,107.02127649953614,REGULAR,Homestay nông thôn Cát Bà 1,private_room,0,0.0,1.0,0.0,0,384066,4,1.0,2.0,1.0,2.0,1.0,2.0,2.0,2.0,0.0,0.0,1.0,1.0,2.0,1.0,2.0,2.0,2.0,2.0,1.0,2.0,2.0,1.0,2.0,2.0,2.0,2.0,2.0,2.0,2.0,2.0,2.0,2.0,2.0,2.0,2.0,2.0
41972120,0.0,quangninh,23,20.72689,107.04874,REGULAR,PHÒNG GIA ĐÌNH VINTAGE VỚI SEAVIEW AT LÀ TRUNG TÂM,private_room,0,0.0,1.0,0.0,0,350714,4,1.0,2.0,1.0,2.0,2.0,2.0,1.0,2.0,2.0,2.0,1.0,1.0,2.0,2.0,2.0,2.0,2.0,2.0,2.0,2.0,2.0,2.0,2.0,2.0,2.0,2.0,2.0,2.0,2.0,1.0,2.0,2.0,2.0,2.0,2.0,2.0
41160086,0.0,quangninh,10,20.874159,106.649551,REGULAR,Phòng 201 - Vân Anh,private_room,0,0.0,1.0,0.0,0,269318,2,1.0,2.0,1.0,2.0,1.0,1.0,1.0,2.0,0.0,0.0,1.0,1.0,2.0,2.0,2.0,2.0,2.0,2.0,2.0,2.0,2.0,2.0,2.0,2.0,2.0,2.0,2.0,2.0,2.0,2.0,1.0,2.0,2.0,2.0,2.0,2.0
33316552,0.0,quangninh,23,20.84692,106.71124,REGULAR,It is my house,private_room,0,0.0,1.0,0.0,0,319530,2,2.0,1.0,1.0,1.0,1.0,1.0,2.0,2.0,0.0,0.0,1.0,2.0,2.0,2.0,2.0,2.0,0.0,2.0,2.0,1.0,2.0,2.0,2.0,2.0,2.0,2.0,2.0,2.0,2.0,2.0,2.0,2.0,2.0,2.0,2.0,2.0
791211278284108483,0.0,quangninh,18,20.837213339400616,106.70538073232936,REGULAR,Khách sạn giá rẻ Hải Phòng Giường số10 * GIƯỜNG CỠ QUEEN *,shared_room,0,0.0,0.0,0.0,0,243077,1,2.0,1.0,1.0,2.0,2.0,2.0,1.0,1.0,2.0,2.0,1.0,1.0,2.0,1.0,2.0,2.0,2.0,2.0,2.0,2.0,2.0,1.0,2.0,2.0,2.0,2.0,1.0,1.0,2.0,2.0,2.0,2.0,2.0,2.0,2.0,2.0
704197221565050207,4.72,quangninh,20,20.95798,107.05191,REGULAR,"Phòng ở trung tâm Hạ Long, phòng rẻ, sạch sẽ, ngẫu nhiên",private_room,18,0.0,0.0,0.0,0,342353,2,2.0,1.0,1.0,2.0,2.0,1.0,1.0,2.0,0.0,0.0,1.0,1.0,2.0,2.0,2.0,2.0,2.0,2.0,2.0,2.0,2.0,2.0,2.0,2.0,2.0,2.0,2.0,2.0,2.0,2.0,2.0,2.0,2.0,2.0,2.0,2.0
15063396,4.61,quangninh,30,20.72772,107.05215,REGULAR,NHÀ KHÁCH DÀI 9,private_room,23,0.0,0.0,0.0,0,323718,4,2.0,2.0,1.0,2.0,2.0,2.0,1.0,2.0,2.0,2.0,1.0,1.0,1.0,2.0,2.0,2.0,2.0,2.0,2.0,2.0,2.0,2.0,2.0,2.0,2.0,2.0,1.0,2.0,2.0,2.0,1.0,1.0,2.0,2.0,2.0,2.0
32478519,0.0,quangninh,6,20.82379,106.692,REGULAR,HAI PHONG APARTMENT 2,private_room,0,0.0,1.0,0.0,0,342353,2,2.0,1.0,1.0,2.0,1.0,2.0,1.0,2.0,0.0,0.0,1.0,2.0,2.0,2.0,2.0,1.0,0.0,2.0,2.0,2.0,1.0,2.0,2.0,2.0,2.0,2.0,2.0,2.0,2.0,2.0,2.0,2.0,2.0,2.0,2.0,2.0
791210564158979633,0.0,quangninh,20,20.83716105077329,106.7054013758735,REGULAR,Khách sạn giá rẻ Hải Phòng Giường số9 * GIƯỜNG CỠ QUEEN *,shared_room,0,0.0,0.0,0.0,0,270260,1,2.0,1.0,1.0,2.0,2.0,2.0,1.0,1.0,2.0,2.0,1.0,1.0,2.0,1.0,2.0,2.0,2.0,2.0,2.0,2.0,2.0,1.0,2.0,2.0,2.0,2.0,1.0,1.0,2.0,2.0,2.0,2.0,2.0,2.0,2.0,2.0
31095325,0.0,quangninh,7,20.72673,107.05208,REGULAR,phòng đôi,private_room,2,0.0,1.0,5.0,0,267035,4,2.0,2.0,1.0,2.0,1.0,2.0,2.0,2.0,2.0,2.0,1.0,1.0,2.0,2.0,2.0,2.0,0.0,2.0,2.0,2.0,1.0,2.0,2.0,2.0,2.0,2.0,2.0,2.0,2.0,1.0,2.0,2.0,2.0,2.0,2.0,2.0
861255970133728204,0.0,quangninh,23,20.76737243864659,107.0214481609131,REGULAR,Cat Ba Countryside Homestay 3,private_room,0,0.0,1.0,0.0,0,384066,4,1.0,2.0,1.0,2.0,1.0,2.0,2.0,2.0,0.0,0.0,1.0,1.0,2.0,1.0,2.0,2.0,2.0,2.0,1.0,2.0,2.0,1.0,2.0,2.0,2.0,2.0,2.0,2.0,2.0,2.0,2.0,2.0,2.0,2.0,2.0,2.0
31276258,4.25,quangninh,23,20.84551,106.65012,REGULAR,Nhà nghỉ Bảo Minh Twin room,private_room,8,0.0,0.0,0.0,0,342353,2,2.0,2.0,1.0,2.0,1.0,2.0,1.0,2.0,0.0,0.0,1.0,1.0,2.0,2.0,2.0,2.0,2.0,2.0,2.0,2.0,1.0,2.0,2.0,2.0,2.0,2.0,2.0,2.0,2.0,2.0,2.0,2.0,2.0,2.0,2.0,2.0
48025156,0.0,quangninh,18,20.85189,106.71336,REGULAR,Phòng studio thoải mái,entire_home,0,0.0,0.0,0.0,0,399412,2,2.0,1.0,1.0,1.0,1.0,2.0,2.0,1.0,0.0,0.0,1.0,2.0,2.0,1.0,2.0,2.0,2.0,2.0,2.0,2.0,2.0,2.0,2.0,2.0,2.0,2.0,2.0,2.0,1.0,2.0,2.0,2.0,2.0,2.0,2.0,2.0
620089000756076754,0.0,quangninh,7,20.847183227539062,106.70891571044922,REGULAR,Khách sạn giá rẻ có chỗ để ô tô,private_room,0,0.0,0.0,0.0,0,316758,2,2.0,2.0,1.0,1.0,1.0,1.0,1.0,2.0,2.0,2.0,1.0,1.0,2.0,2.0,2.0,2.0,2.0,2.0,2.0,2.0,2.0,2.0,1.0,2.0,2.0,2.0,2.0,2.0,2.0,2.0,1.0,1.0,2.0,2.0,2.0,2.0
897355602210670591,0.0,quangninh,5,20.86006,106.63569,REGULAR,cho thuê căn hộ Hoàng Huy Pruksa,private_room,0,0.0,1.0,0.0,0,248336,2,1.0,1.0,1.0,1.0,1.0,2.0,1.0,1.0,0.0,2.0,1.0,2.0,2.0,2.0,2.0,2.0,2.0,2.0,2.0,2.0,2.0,2.0,2.0,2.0,2.0,2.0,2.0,2.0,2.0,2.0,2.0,2.0,2.0,2.0,2.0,2.0
688283097193214038,4.67,quangninh,21,20.959,107.05162,REGULAR,"Phòng có Giá rẻ và sạch sẽ, trung tâm, (phòng ngẫu nhiên)",private_room,6,0.0,0.0,0.0,0,342353,2,2.0,1.0,1.0,2.0,2.0,1.0,1.0,2.0,0.0,0.0,1.0,1.0,2.0,2.0,2.0,2.0,2.0,2.0,2.0,2.0,2.0,1.0,2.0,2.0,2.0,2.0,1.0,2.0,2.0,2.0,2.0,2.0,2.0,2.0,2.0,2.0
42111598,0.0,quangninh,12,20.7473,106.66715,REGULAR,Lengkeng - Giường trong nhà trọ tập thể lấp lánh dành cho bạn bè,private_room,0,0.0,0.0,0.0,0,285294,8,2.0,2.0,1.0,2.0,1.0,2.0,2.0,2.0,0.0,0.0,2.0,1.0,2.0,2.0,2.0,2.0,2.0,2.0,2.0,2.0,2.0,2.0,2.0,2.0,2.0,2.0,2.0,2.0,2.0,1.0,2.0,2.0,2.0,2.0,2.0,2.0
41160628,0.0,quangninh,10,20.874159,106.649551,REGULAR,Phòng 203 - Vân Anh,private_room,0,0.0,1.0,0.0,0,269318,2,1.0,2.0,1.0,2.0,1.0,1.0,1.0,1.0,0.0,0.0,1.0,2.0,2.0,2.0,2.0,2.0,2.0,2.0,2.0,2.0,2.0,2.0,2.0,2.0,2.0,2.0,2.0,2.0,2.0,2.0,1.0,2.0,2.0,2.0,2.0,2.0
38782507,0.0,quangninh,15,20.72511,107.04971,REGULAR,"chúng tôi có quán rượu, nhà hàng",private_room,0,0.0,0.0,0.0,0,345600,2,2.0,2.0,1.0,2.0,1.0,1.0,1.0,2.0,0.0,0.0,1.0,1.0,2.0,2.0,2.0,2.0,2.0,2.0,2.0,2.0,1.0,2.0,1.0,2.0,2.0,2.0,2.0,2.0,2.0,2.0,2.0,2.0,2.0,2.0,2.0,2.0
25017941,0.0,quangninh,7,20.72612,107.05336,REGULAR,Nhà khách Bảo Long 2,private_room,0,0.0,0.0,0.0,0,323718,2,2.0,2.0,1.0,2.0,2.0,2.0,1.0,1.0,0.0,0.0,1.0,1.0,2.0,2.0,2.0,2.0,2.0,2.0,2.0,2.0,2.0,2.0,2.0,2.0,2.0,2.0,1.0,2.0,2.0,2.0,1.0,1.0,2.0,2.0,2.0,2.0
25017997,4.88,quangninh,3,20.72612,107.05336,REGULAR,Nhà khách Bảo Long 1,private_room,8,0.0,0.0,0.0,0,323718,4,2.0,2.0,1.0,2.0,2.0,2.0,1.0,2.0,0.0,0.0,1.0,1.0,2.0,2.0,2.0,2.0,2.0,2.0,2.0,2.0,2.0,2.0,2.0,2.0,2.0,2.0,1.0,2.0,2.0,2.0,1.0,2.0,2.0,2.0,2.0,2.0
896299291259297627,0.0,quangninh,14,21.05511,106.73699,REGULAR,Phòng cộng đồng cho 20 khách,shared_room,0,0.0,0.0,0.0,0,385676,16,2.0,1.0,1.0,1.0,1.0,2.0,2.0,1.0,2.0,2.0,2.0,2.0,2.0,1.0,2.0,2.0,2.0,2.0,2.0,1.0,2.0,2.0,2.0,2.0,2.0,2.0,2.0,2.0,1.0,2.0,2.0,2.0,2.0,2.0,2.0,2.0
757881837148789407,0.0,quangninh,21,20.95943,107.05197,REGULAR,Almor homestay phòng riêng tại trung tâm Hà dài,private_room,0,0.0,0.0,0.0,0,342353,2,2.0,1.0,1.0,2.0,2.0,1.0,2.0,2.0,0.0,0.0,1.0,1.0,2.0,2.0,2.0,2.0,2.0,2.0,2.0,2.0,2.0,1.0,2.0,2.0,2.0,2.0,1.0,2.0,2.0,2.0,2.0,2.0,2.0,2.0,2.0,2.0
777055711341052035,0.0,quangninh,5,20.72663,107.05186,REGULAR,Central Budget Hostel in Cat Ba,shared_room,0,0.0,0.0,0.0,0,242500,4,2.0,2.0,1.0,2.0,2.0,2.0,2.0,2.0,0.0,0.0,1.0,2.0,2.0,1.0,2.0,2.0,2.0,2.0,2.0,2.0,2.0,2.0,2.0,2.0,2.0,2.0,1.0,2.0,2.0,2.0,1.0,1.0,1.0,2.0,2.0,2.0
31522804,4.83,quangninh,9,20.83814,106.68645,REGULAR,Cindy House,private_room,6,0.0,1.0,5.0,0,399412,4,2.0,1.0,1.0,2.0,2.0,2.0,1.0,1.0,0.0,0.0,1.0,1.0,2.0,2.0,2.0,2.0,0.0,2.0,2.0,2.0,2.0,2.0,2.0,2.0,2.0,2.0,1.0,2.0,2.0,2.0,2.0,2.0,2.0,2.0,2.0,2.0
31095583,0.0,quangninh,13,20.72713,107.05148,REGULAR,Ký túc xá hỗn hợp 601,hotel_room,0,0.0,0.0,0.0,0,314965,1,2.0,2.0,1.0,2.0,1.0,2.0,2.0,2.0,2.0,2.0,1.0,1.0,2.0,1.0,2.0,2.0,2.0,2.0,2.0,2.0,2.0,2.0,2.0,2.0,2.0,2.0,2.0,2.0,2.0,1.0,2.0,2.0,2.0,1.0,2.0,2.0
613384927334563569,0.0,quangninh,14,20.95439,107.09119,REGULAR,"Ăn sạch, uống xanh, sống khỏe mạnh",shared_room,0,0.0,0.0,0.0,0,341212,16,2.0,2.0,1.0,2.0,1.0,2.0,2.0,2.0,0.0,0.0,1.0,2.0,2.0,1.0,2.0,2.0,2.0,2.0,2.0,2.0,2.0,2.0,2.0,2.0,2.0,2.0,2.0,2.0,2.0,2.0,2.0,2.0,2.0,2.0,2.0,2.0
38589390,0.0,quangninh,30,20.726755142211914,107.05192565917969,REGULAR,"Số 71 đường núi ngọc, cát bà, hải phòng",hotel_room,0,0.0,0.0,0.0,0,399412,10,2.0,2.0,1.0,1.0,1.0,2.0,1.0,1.0,0.0,2.0,1.0,2.0,2.0,2.0,2.0,2.0,2.0,2.0,2.0,2.0,1.0,2.0,2.0,2.0,2.0,2.0,2.0,2.0,1.0,2.0,2.0,2.0,2.0,2.0,1.0,2.0
33512647,0.0,quangninh,30,20.9712,107.04481,REGULAR,HONG NGOC RUBY HA LONG,shared_room,0,0.0,0.0,0.0,0,330941,16,2.0,1.0,1.0,2.0,1.0,2.0,2.0,1.0,0.0,0.0,1.0,1.0,2.0,2.0,2.0,2.0,2.0,1.0,2.0,2.0,2.0,2.0,2.0,2.0,2.0,2.0,2.0,2.0,2.0,1.0,2.0,2.0,2.0,2.0,2.0,2.0
44669610,1.67,quangninh,20,20.84165,106.70834,REGULAR,"phòng đẹp , giá gia đình , con chủ nhà đẹp trai ,",entire_home,3,0.0,0.0,0.0,0,285294,12,2.0,1.0,1.0,2.0,2.0,1.0,1.0,1.0,0.0,0.0,1.0,2.0,2.0,2.0,2.0,2.0,2.0,2.0,2.0,2.0,2.0,2.0,1.0,2.0,2.0,2.0,2.0,2.0,2.0,2.0,2.0,2.0,2.0,2.0,2.0,2.0
791199814524710882,0.0,quangninh,19,20.837327344595533,106.70533790022724,REGULAR,Khách sạn giá rẻ Hải Phòng Giường số3 * GIƯỜNG CỠ QUEEN *,shared_room,0,0.0,0.0,0.0,0,270118,1,2.0,1.0,1.0,2.0,2.0,2.0,1.0,1.0,2.0,2.0,1.0,1.0,2.0,1.0,2.0,2.0,2.0,2.0,2.0,2.0,2.0,1.0,2.0,2.0,2.0,2.0,1.0,1.0,2.0,2.0,2.0,2.0,2.0,2.0,2.0,2.0
43571331,0.0,quangninh,4,20.72906,107.0491,REGULAR,"Nhà nghỉ thành long,năm riêng biệt khu du lịch",private_room,0,0.0,1.0,0.0,0,342353,4,2.0,1.0,1.0,2.0,1.0,2.0,1.0,2.0,0.0,0.0,1.0,2.0,2.0,2.0,2.0,2.0,0.0,2.0,2.0,2.0,2.0,2.0,2.0,2.0,2.0,2.0,2.0,2.0,2.0,2.0,2.0,2.0,2.0,2.0,2.0,2.0
791192551597159902,0.0,quangninh,19,20.837217800390214,106.70540981019299,REGULAR,HaiPhongHostel Giường số2 * GIƯỜNG CỠ QUEEN *,shared_room,0,0.0,0.0,0.0,0,243077,1,2.0,1.0,1.0,2.0,2.0,2.0,1.0,1.0,2.0,2.0,1.0,1.0,2.0,1.0,2.0,2.0,2.0,2.0,2.0,2.0,2.0,1.0,2.0,2.0,2.0,2.0,1.0,1.0,2.0,2.0,2.0,2.0,2.0,2.0,2.0,2.0
893370270891777636,0.0,quangninh,11,20.96828,106.99402,REGULAR,"Dorm 4 beds with terrace, 2km to beach & quiet",shared_room,0,0.0,0.0,0.0,0,225595,4,2.0,2.0,1.0,2.0,1.0,2.0,2.0,1.0,0.0,0.0,1.0,2.0,1.0,2.0,2.0,2.0,2.0,2.0,2.0,2.0,2.0,1.0,2.0,2.0,2.0,1.0,2.0,2.0,2.0,2.0,2.0,2.0,2.0,2.0,2.0,1.0
49218660,0.0,quangninh,21,20.84838,106.68946,REGULAR,Nhà Khách Hoàng Tuyết - Phòng Sang Trọng Dễ Thương,private_room,0,0.0,0.0,0.0,0,383436,2,2.0,2.0,1.0,1.0,2.0,2.0,1.0,2.0,0.0,0.0,1.0,1.0,2.0,2.0,2.0,2.0,2.0,2.0,2.0,2.0,2.0,2.0,2.0,2.0,2.0,2.0,2.0,2.0,2.0,2.0,2.0,2.0,2.0,2.0,2.0,2.0
41160737,0.0,quangninh,12,20.87376,106.64921,REGULAR,Phòng 02 - Vân Anh,private_room,0,0.0,1.0,0.0,0,285294,3,1.0,2.0,1.0,2.0,1.0,1.0,1.0,2.0,0.0,0.0,1.0,1.0,2.0,2.0,2.0,2.0,2.0,2.0,2.0,2.0,2.0,2.0,2.0,2.0,2.0,2.0,2.0,2.0,2.0,2.0,1.0,2.0,2.0,2.0,2.0,2.0
41161037,0.0,quangninh,13,20.87437,106.64982,REGULAR,Phòng 03 - Từ ANH,private_room,0,0.0,1.0,0.0,0,319530,3,1.0,2.0,1.0,2.0,1.0,1.0,1.0,1.0,0.0,0.0,1.0,2.0,2.0,2.0,2.0,2.0,2.0,2.0,2.0,2.0,2.0,2.0,2.0,2.0,2.0,2.0,2.0,2.0,2.0,2.0,1.0,2.0,2.0,2.0,2.0,2.0
623893684167255009,0.0,quangninh,11,20.849145889282227,106.70794677734375,REGULAR,Khách sạn giá rẻ,private_room,0,0.0,0.0,0.0,0,407018,3,2.0,2.0,1.0,1.0,1.0,1.0,1.0,2.0,2.0,2.0,1.0,1.0,2.0,2.0,2.0,2.0,2.0,2.0,2.0,2.0,2.0,1.0,2.0,2.0,1.0,2.0,2.0,2.0,2.0,2.0,1.0,2.0,2.0,2.0,2.0,2.0
42145146,0.0,quangninh,25,20.73749,107.04213,REGULAR,Phòng Queen cao cấp (Cat Ba Valentine ),private_room,0,0.0,1.0,0.0,0,399412,2,1.0,1.0,1.0,2.0,1.0,2.0,1.0,1.0,0.0,0.0,1.0,2.0,1.0,2.0,2.0,2.0,2.0,2.0,2.0,2.0,2.0,2.0,2.0,2.0,2.0,2.0,2.0,2.0,2.0,2.0,2.0,2.0,2.0,2.0,2.0,2.0
41160547,0.0,quangninh,11,20.874159,106.649551,REGULAR,Phòng 202 - Vân Anh,private_room,0,0.0,1.0,0.0,0,269318,2,1.0,2.0,1.0,2.0,2.0,1.0,1.0,1.0,0.0,0.0,1.0,1.0,2.0,2.0,2.0,2.0,2.0,2.0,2.0,2.0,2.0,2.0,2.0,2.0,2.0,2.0,2.0,2.0,2.0,2.0,1.0,2.0,2.0,2.0,2.0,2.0
25017325,0.0,quangninh,9,20.72612,107.05336,REGULAR,Nhà khách Bảo Long 6,private_room,0,0.0,0.0,0.0,0,323718,4,2.0,2.0,1.0,2.0,2.0,2.0,1.0,2.0,0.0,0.0,1.0,1.0,2.0,2.0,2.0,2.0,2.0,2.0,2.0,2.0,2.0,2.0,2.0,2.0,2.0,2.0,1.0,2.0,2.0,2.0,1.0,2.0,2.0,2.0,2.0,2.0
31095406,0.0,quangninh,10,20.72652,107.0529,REGULAR,ký túc xá hỗn hợp 501,hotel_room,0,0.0,0.0,0.0,0,314965,6,2.0,2.0,1.0,2.0,1.0,2.0,2.0,2.0,2.0,2.0,1.0,2.0,2.0,1.0,2.0,2.0,2.0,2.0,2.0,2.0,2.0,2.0,2.0,2.0,2.0,2.0,2.0,2.0,2.0,1.0,2.0,2.0,2.0,1.0,2.0,2.0
612100044865241460,0.0,quangninh,7,20.95496,107.089485,REGULAR,Nha ̀ Xanh Ha ̣ Long Homestay,shared_room,0,0.0,0.0,0.0,0,341212,16,2.0,2.0,1.0,2.0,1.0,2.0,2.0,2.0,0.0,0.0,1.0,2.0,2.0,1.0,2.0,2.0,2.0,2.0,2.0,1.0,2.0,2.0,2.0,1.0,2.0,2.0,2.0,2.0,2.0,2.0,2.0,2.0,2.0,2.0,2.0,2.0
48815419,0.0,quangninh,22,20.84899,106.68969,REGULAR,Nhà Khách Hoàng Tuyết - Phòng Sang Trọng Dễ Thương,private_room,0,0.0,1.0,0.0,0,383435,2,1.0,2.0,1.0,1.0,2.0,2.0,1.0,2.0,0.0,0.0,1.0,1.0,2.0,2.0,2.0,2.0,2.0,2.0,2.0,2.0,2.0,2.0,2.0,2.0,2.0,2.0,2.0,2.0,2.0,2.0,2.0,2.0,2.0,2.0,2.0,2.0
49218624,0.0,quangninh,22,20.84963,106.69105,REGULAR,Nhà Khách Hoàng Tuyết - Phòng Sang Trọng Dễ Thương,private_room,0,0.0,0.0,0.0,0,383435,2,2.0,2.0,1.0,1.0,2.0,2.0,1.0,2.0,0.0,0.0,1.0,1.0,2.0,2.0,2.0,2.0,2.0,2.0,2.0,2.0,2.0,2.0,2.0,2.0,2.0,2.0,2.0,2.0,2.0,2.0,2.0,2.0,2.0,2.0,2.0,2.0
25016215,0.0,quangninh,4,20.72612,107.05336,REGULAR,Nhà khách Bảo Long 8,private_room,0,0.0,0.0,0.0,0,323718,4,2.0,2.0,1.0,2.0,2.0,2.0,1.0,2.0,0.0,0.0,1.0,1.0,2.0,2.0,2.0,2.0,2.0,2.0,2.0,2.0,2.0,2.0,2.0,2.0,2.0,2.0,1.0,2.0,2.0,2.0,1.0,2.0,2.0,2.0,2.0,2.0
46163425,0.0,quangninh,5,20.76994,106.73486,REGULAR,CHP THUÊ NHÀ MẶT TIỀN 6M NGUYÊN CĂN DT 180m2/ sàn,entire_home,0,0.0,0.0,0.0,0,285294,6,2.0,1.0,2.0,2.0,1.0,1.0,2.0,2.0,0.0,0.0,2.0,2.0,2.0,2.0,2.0,2.0,2.0,2.0,2.0,2.0,2.0,2.0,1.0,2.0,2.0,2.0,2.0,2.0,1.0,2.0,2.0,2.0,2.0,2.0,2.0,2.0
25001966,0.0,quangninh,17,20.72612,107.05336,REGULAR,Nhà khách Bảo Long 10,private_room,0,0.0,0.0,0.0,0,323718,4,2.0,2.0,1.0,2.0,2.0,2.0,1.0,2.0,0.0,0.0,1.0,1.0,2.0,2.0,2.0,2.0,2.0,2.0,2.0,2.0,2.0,2.0,2.0,2.0,2.0,2.0,1.0,2.0,2.0,2.0,1.0,1.0,2.0,2.0,2.0,2.0
25017053,0.0,quangninh,9,20.72612,107.05336,REGULAR,Nhà khách Bảo Long 7,private_room,0,0.0,0.0,0.0,0,323718,4,2.0,2.0,1.0,2.0,2.0,2.0,1.0,2.0,0.0,0.0,1.0,1.0,2.0,2.0,2.0,2.0,2.0,2.0,2.0,2.0,2.0,2.0,2.0,2.0,2.0,2.0,1.0,2.0,2.0,2.0,1.0,2.0,2.0,2.0,2.0,2.0
29999741,0.0,quangninh,6,20.95932,107.03288,REGULAR,Tuần trăng khuya (phòng tắm riêng),private_room,0,0.0,1.0,0.0,0,399412,2,2.0,1.0,1.0,2.0,1.0,1.0,1.0,2.0,0.0,2.0,2.0,1.0,1.0,2.0,2.0,1.0,0.0,2.0,2.0,2.0,2.0,2.0,2.0,2.0,2.0,2.0,2.0,2.0,2.0,2.0,2.0,2.0,2.0,2.0,2.0,2.0
15168867,4.79,quangninh,21,20.9605,107.01786,REGULAR,Phòng Xoài ấm cúng tại Gingerhomestay,private_room,34,0.0,1.0,7.0,0,354685,1,1.0,1.0,1.0,2.0,1.0,2.0,1.0,1.0,0.0,0.0,1.0,1.0,2.0,2.0,2.0,2.0,2.0,2.0,2.0,2.0,2.0,2.0,2.0,2.0,2.0,2.0,2.0,2.0,2.0,2.0,2.0,2.0,2.0,2.0,2.0,2.0
